     3.04           OBSERVATION DATA    M: Mixed            RINEX VERSION / TYPE
RTKCONV demo5 b34g                      20230216 093732 UTC PGM / RUN BY / DATE 
format: RTCM 3                                              COMMENT             
log: C:\Users\Salmos\Desktop\logdata\rtcm3.3\base.rtcm3     COMMENT             
1665                                                        MARKER NAME         
                                                            MARKER NUMBER       
                                                            MARKER TYPE         
                                                            OBSERVER / AGENCY   
                    QXWZ VRS                                REC # / TYPE / VERS 
                    ADVNULLANTENNA                          ANT # / TYPE        
 -2845676.4110  4661619.4022  3283215.3241                  APPROX POSITION XYZ 
        0.0000        0.0000        0.0000                  ANTENNA: DELTA H/E/N
G    9 C1C L1C S1C C2W L2W S2W C5Q L5Q S5Q                  SYS / # / OBS TYPES 
R    4 C1C S1C C2P S2P                                      SYS / # / OBS TYPES 
E    9 C1C L1C S1C C7Q L7Q S7Q C5Q L5Q S5Q                  SYS / # / OBS TYPES 
C    9 C2I L2I S2I C7I L7I S7I C6I L6I S6I                  SYS / # / OBS TYPES 
  2023    02    16    09    20   37.0000000     GPS         TIME OF FIRST OBS   
  2023    02    16    09    30   37.0000000     GPS         TIME OF LAST OBS    
G L1C                                                       SYS / PHASE SHIFT   
G L2W  0.00000                                              SYS / PHASE SHIFT   
G L5Q  0.00000                                              SYS / PHASE SHIFT   
E L1C  0.00000                                              SYS / PHASE SHIFT   
E L7Q  0.00000                                              SYS / PHASE SHIFT   
E L5Q  0.00000                                              SYS / PHASE SHIFT   
C L2I                                                       SYS / PHASE SHIFT   
C L7I                                                       SYS / PHASE SHIFT   
C L6I                                                       SYS / PHASE SHIFT   
  0                                                         GLONASS SLOT / FRQ #
 C1C    0.000 C1P    0.000 C2C    0.000 C2P    0.000        GLONASS COD/PHS/BIS 
                                                            END OF HEADER       
> 2023 02 16 09 20 37.0000000  0 37                     
R11  20350247.342          51.000    20350258.421          52.000  
R12  19626527.592          53.000    19626536.044          53.000  
R13  22916328.242          34.000    22916339.285          38.000  
R21  21785891.607          50.000    21785900.095          47.000  
R22  19767166.238          52.000    19767173.439          54.000  
C01  37110798.579   193245640.5171         44.000    37110804.744   149429657.3871         47.000    37110805.512   157028063.9681         45.000  
C02  38347394.847   199684906.7531         40.000    38347398.493   154408880.9161         45.000    38347400.440   162260345.6021         43.000  
C03  36932974.157   192319676.6301         44.000    36932978.356   148713639.9271         48.000    36932979.000   156275394.0331         46.000  
C04  38127674.625   198540779.3971         41.000    38127680.665   153524294.2611         45.000    38127680.325   161330610.7941         43.000  
C07  36080214.008   187879194.7411         46.000    36080213.186   145280141.2911         50.000    36080211.846   152667251.7451         49.000  
C08  38139276.839   198601500.9411         40.000    38139285.702   153571464.6801         45.000    38139282.092   161380130.9241         43.000  
C09  38930323.082   202720329.4311         38.000    38930336.234   156756261.7411         41.000    38930331.266   164726896.9261         38.000  
C10  36705709.991   191136350.6951         45.000    36705712.278   147798803.1711         48.000    36705710.991   155313977.7801         47.000  
C13  38890404.882   202512767.8721         41.000    38890426.789   156595920.0361         42.000    38890421.965   164558370.9461         42.000  
C24  24809694.642   129190617.8361         43.000                                                    24809699.359   104977987.3901         45.000  
C26  22250004.741   115861701.7051         50.000                                                    22250010.638    94147188.0231         52.000  
C29  24280357.358   126434390.8661         45.000                                                    24280360.950   102738408.7831         45.000  
C35  21814677.084   113595082.1891         50.000                                                    21814681.801    92305476.4391         52.000  
C38  37215279.596   193790071.1081         47.000                                                    37215286.083   157470475.9681         49.000  
C40  36289269.533   188967849.2851         48.000                                                    36289273.447   153551927.3611         51.000  
C44  23972856.096   124833180.2271         46.000                                                    23972863.316   101437294.0461         46.000  
C45  23492726.957   122332766.3671         47.000                                                    23492730.459    99405404.1711         49.000  
G01  20248424.610   106406615.9311         48.000    20248429.274    82914434.1001         57.000    20248429.238    79459755.9131         53.000  
G03  22398546.748   117705485.1201         43.000    22398558.309    91718742.7311         48.000    22398561.026    87897206.8771         48.000  
G07  22725904.408   119425295.0301         41.000    22725920.168    93058648.6501         43.000                                                  
G08  24107513.265   126685951.2451         37.000    24107522.593    98716423.7561         24.000    24107523.165    94603278.9641         42.000  
G14  20926757.542   109970976.6331         46.000    20926760.312    85691724.2791         43.000    20926765.243    82121279.6311         52.000  
G17  22272281.248   117041830.2301         44.000    22272284.214    91201534.2631         48.000                                                  
G21  22552002.898   118511942.5131         44.000    22552004.452    92347140.2731         35.000                                                  
G30  22068392.926   115970228.2791         45.000    22068400.574    90366455.5371         49.000    22068402.933    86601203.8331         48.000  
E02  24636356.060   129465000.9881         45.000    24636360.169    99200564.2231         50.000    24636363.600    96678526.2551         48.000  
E10  26459219.086   139044408.6061         40.000    26459224.000   106540696.4861         45.000    26459227.270   103832065.4621         43.000  
E11  23963177.144   125927717.0371         43.000    23963177.269    96490270.2991         47.000    23963180.485    94037164.6281         45.000  
E24  26825169.850   140967056.7091         39.000    26825189.828   108013712.1101         44.000    26825194.795   105267609.7761         42.000  
E25  23499694.911   123491806.5251         48.000    23499699.450    94623648.3461         53.000    23499702.702    92217981.2641         51.000  
E34  26946693.091   141605973.0951         38.000    26946712.514   108503425.2151         45.000    26946715.766   105744889.5681         39.000  
E36  23525288.141   123626657.3681         48.000    23525293.502    94727169.1391         53.000    23525296.754    92318890.9641         50.000  
> 2023 02 16 09 20 38.0000000  0 37                     
R11  20350820.509          51.000    20350831.534          52.000  
R12  19626269.474          53.000    19626277.926          53.000  
R13  22915587.196          34.000    22915598.060          39.000  
R21  21786433.110          50.000    21786441.508          47.000  
R22  19767331.901          52.000    19767339.031          54.000  
C01  37110790.735   193245599.535          44.000    37110796.846   149429625.695          47.000    37110797.632   157028030.676          45.000  
C02  38347391.506   199684889.441          40.000    38347395.133   154408867.529          45.000    38347397.170   162260331.539          43.000  
C03  36932965.062   192319629.751          44.000    36932969.386   148713603.677          48.000    36932969.976   156275355.930          46.000  
C04  38127669.800   198540754.137          41.000    38127675.661   153524274.728          45.000    38127675.465   161330590.269          43.000  
C07  36080146.481   187878843.575          46.000    36080145.785   145279869.752          50.000    36080144.409   152666966.394          49.000  
C08  38138974.477   198599926.478          41.000    38138983.340   153570247.205          45.000    38138979.748   161378851.542          43.000  
C09  38930674.905   202722163.526          38.000    38930688.379   156757679.964          41.000    38930683.536   164728387.269          38.000  
C10  36705612.372   191135842.718          45.000    36705614.838   147798410.372          48.000    36705613.408   155313565.010          48.000  
C13  38890120.568   202511287.430          41.000    38890142.511   156594775.275          42.000    38890137.687   164557167.972          42.000  
C24  24809246.862   129188286.487          43.000                                                    24809251.615   104976092.980          45.000  
C26  22250025.469   115861809.683          50.000                                                    22250031.384    94147275.761          52.000  
C29  24280764.647   126436510.865          45.000                                                    24280768.078   102740131.455          45.000  
C35  21814759.853   113595513.487          50.000                                                    21814764.642    92305826.906          52.000  
C38  37215027.929   193788760.738          47.000                                                    37215034.415   157469411.187          49.000  
C40  36289196.646   188967469.783          48.000                                                    36289200.541   153551618.984          51.000  
C44  23972545.819   124831564.602          46.000                                                    23972553.056   101435981.223          46.000  
C45  23493270.819   122335598.144          47.000                                                    23493274.321    99407705.205          49.000  
G01  20248731.975   106408231.268          48.000    20248736.675    82915692.805          57.000    20248736.621    79460962.168          53.000  
G03  22398064.249   117702949.662          43.000    22398075.810    91716767.063          48.000    22398078.526    87895313.534          48.000  
G07  22726490.387   119428375.450          41.000    22726506.379    93061048.945          43.000                                                  
G08  24107939.459   126688191.899          37.000    24107948.948    98718169.720          24.000    24107949.627    94604952.175          42.000  
G14  20926389.780   109969044.163          46.000    20926392.567    85690218.462          42.000    20926397.499    82119836.545          52.000  
G17  22272034.459   117040533.529          44.000    22272037.479    91200523.849          48.000                                                  
G21  22552569.989   118514922.947          44.000    22552571.615    92349462.689          35.000                                                  
G30  22068701.417   115971849.641          45.000    22068709.101    90367718.929          49.000    22068711.477    86602414.583          48.000  
E02  24635991.639   129463086.119          45.000    24635995.802    99199096.984          50.000    24635999.233    96677096.323          48.000  
E10  26459695.027   139046909.631          40.000    26459699.959   106542612.858          45.000    26459703.247   103833933.105          43.000  
E11  23963506.916   125929450.257          43.000    23963507.095    96491598.348          47.000    23963510.312    94038458.907          45.000  
E24  26825637.751   140969515.612          40.000    26825657.800   108015596.173          45.000    26825662.767   105269445.931          42.000  
E25  23499776.322   123492234.259          48.000    23499780.861    94623976.088          53.000    23499784.077    92218300.674          51.000  
E34  26946234.822   141603566.812          38.000    26946254.531   108501581.437          45.000    26946257.765   105743092.677          39.000  
E36  23525172.939   123626051.812          48.000    23525178.282    94726705.144          53.000    23525181.516    92318438.768          50.000  
> 2023 02 16 09 20 39.0000000  0 37                     
R11  20351394.015          52.000    20351404.915          52.000  
R12  19626011.660          53.000    19626020.183          53.000  
R13  22914845.864          34.000    22914857.103          39.000  
R21  21786974.845          50.000    21786983.047          47.000  
R22  19767497.762          52.000    19767504.927          54.000  
C01  37110783.087   193245559.608          44.000    37110789.198   149429594.821          47.000    37110790.002   157027998.244          45.000  
C02  38347388.343   199684873.183          40.000    38347392.113   154408854.962          45.000    38347394.043   162260318.323          43.000  
C03  36932956.324   192319583.924          44.000    36932960.523   148713568.235          48.000    36932961.202   156275318.695          46.000  
C04  38127665.190   198540729.933          41.000    38127670.926   153524256.012          45.000    38127670.872   161330570.603          43.000  
C07  36080079.187   187878493.453          46.000    36080078.508   145279599.004          50.000    36080077.167   152666681.884          49.000  
C08  38138672.419   198598353.144          41.000    38138681.157   153569030.613          45.000    38138677.619   161377573.084          43.000  
C09  38931027.032   202723998.664          38.000    38931040.791   156759098.998          41.000    38931035.985   164729878.460          38.000  
C10  36705515.093   191135335.786          45.000    36705517.488   147798018.382          48.000    36705516.094   155313153.084          48.000  
C13  38889836.701   202509808.162          41.000    38889858.429   156593631.425          42.000    38889853.605   164555965.955          42.000  
C24  24808799.404   129185956.539          43.000                                                    24808804.175   104974199.709          45.000  
C26  22250046.590   115861919.274          50.000                                                    22250052.433    94147364.813          52.000  
C29  24281172.078   126438631.909          45.000                                                    24281175.420   102741854.975          45.000  
C35  21814842.944   113595946.027          50.000                                                    21814847.715    92306178.380          52.000  
C38  37214776.583   193787451.561          47.000                                                    37214782.998   157468347.376          49.000  
C40  36289123.972   188967091.301          48.000                                                    36289127.850   153551311.437          51.000  
C44  23972235.863   124829950.219          46.000                                                    23972243.064   101434669.409          46.000  
C45  23493814.913   122338431.238          47.000                                                    23493818.415    99410007.315          49.000  
G01  20249039.769   106409848.199          48.000    20249044.361    82916952.751          57.000    20249044.308    79462169.620          53.000  
G03  22397582.107   117700415.634          43.000    22397593.597    91714792.509          48.000    22397596.331    87893421.249          48.000  
G07  22727076.544   119431457.105          41.000    22727092.823    93063450.200          42.000                                                  
G08  24108365.814   126690433.630          37.000    24108375.535    98719916.521          24.000    24108376.303    94606626.199          42.000  
G14  20926022.285   109967113.126          46.000    20926025.108    85688713.759          42.000    20926030.058    82118394.543          52.000  
G17  22271787.866   117039237.973          44.000    22271790.958    91199514.327          48.000                                                  
G21  22553137.295   118517904.558          44.000    22553139.010    92351786.025          35.000                                                  
G30  22069010.247   115973472.544          45.000    22069017.931    90368983.524          49.000    22069020.307    86603626.484          48.000  
E02  24635627.504   129461172.527          45.000    24635631.667    99197630.723          50.000    24635635.080    96675667.342          48.000  
E10  26460171.022   139049411.765          41.000    26460176.097   106544530.066          45.000    26460179.403   103835801.577          43.000  
E11  23963836.957   125931184.745          43.000    23963837.136    96492927.369          47.000    23963840.388    94039754.141          45.000  
E24  26826106.026   140971975.754          40.000    26826125.950   108017481.190          45.000    26826131.007   105271283.012          42.000  
E25  23499858.002   123492663.419          48.000    23499862.505    94624304.922          53.000    23499865.757    92218621.148          51.000  
E34  26945777.017   141601161.771          38.000    26945796.763   108499738.638          45.000    26945799.961   105741296.737          39.000  
E36  23525058.024   123625447.676          48.000    23525063.313    94726242.230          53.000    23525066.565    92317987.623          50.000  
> 2023 02 16 09 20 40.0000000  0 37                     
R11  20351967.414          52.000    20351978.171          52.000  
R12  19625753.846          53.000    19625762.298          53.000  
R13  22914104.210          34.000    22914115.932          39.000  
R21  21787516.098          50.000    21787524.299          47.000  
R22  19767663.390          52.000    19767670.609          54.000  
C01  37110775.242   193245518.298          44.000    37110781.228   149429562.875          47.000    37110782.086   157027964.662          44.000  
C02  38347384.859   199684855.533          40.000    38347388.843   154408841.307          45.000    38347390.702   162260303.981          43.000  
C03  36932947.300   192319536.714          44.000    36932951.428   148713531.744          48.000    36932952.143   156275280.335          46.000  
C04  38127660.115   198540704.345          41.000    38127665.941   153524236.232          45.000    38127665.958   161330549.808          42.000  
C07  36080011.749   187878141.935          46.000    36080011.016   145279327.191          50.000    36080009.640   152666396.254          49.000  
C08  38138370.075   198596778.560          41.000    38138378.795   153567813.044          45.000    38138375.239   161376293.615          43.000  
C09  38931378.873   202725832.421          38.000    38931393.079   156760516.948          41.000    38931388.201   164731368.507          38.000  
C10  36705417.564   191134827.450          45.000    36705419.869   147797625.304          49.000    36705418.440   155312740.024          47.000  
C13  38889552.530   202508327.583          41.000    38889574.133   156592486.556          42.000    38889569.255   164554762.871          42.000  
C24  24808351.713   129183625.567          43.000                                                    24808356.556   104972305.601          45.000  
C26  22250067.515   115862028.018          50.000                                                    22250073.304    94147453.175          51.000  
C29  24281579.188   126440751.567          45.000                                                    24281582.458   102743577.369          44.000  
C35  21814925.749   113596377.363          50.000                                                    21814930.556    92306528.876          52.000  
C38  37214524.969   193786141.133          47.000                                                    37214531.349   157467282.548          48.000  
C40  36289051.013   188966711.410          48.000                                                    36289054.891   153551002.744          51.000  
C44  23971925.656   124828334.638          46.000                                                    23971932.822   101433356.622          46.000  
C45  23494358.738   122341263.218          47.000                                                    23494362.294    99412308.517          48.000  
G01  20249347.223   106411464.256          48.000    20249351.887    82918212.016          57.000    20249351.816    79463376.416          53.000  
G03  22397099.768   117697880.570          43.000    22397111.187    91712817.146          48.000    22397113.903    87891528.199          48.000  
G07  22727662.559   119434537.554          41.000    22727679.052    93065850.521          42.000                                                  
G08  24108792.169   126692674.008          38.000    24108801.836    98721662.265          24.000    24108802.712    94608299.202          42.000  
G14  20925654.684   109965181.077          46.000    20925657.435    85687208.266          42.000    20925662.421    82116951.776          52.000  
G17  22271541.095   117037941.105          44.000    22271544.186    91198503.783          48.000                                                  
G21  22553704.368   118520884.892          43.000    22553706.137    92354108.361          35.000                                                  
G30  22069318.970   115975094.539          45.000    22069326.600    90370247.412          49.000    22069328.995    86604837.711          48.000  
E02  24635263.137   129459257.735          45.000    24635267.300    99196163.549          50.000    24635270.695    96674237.469          48.000  
E10  26460646.856   139051912.546          40.000    26460651.967   106546446.255          45.000    26460655.291   103837669.048          43.000  
E11  23964166.784   125932918.051          44.000    23964166.945    96494255.491          47.000    23964170.250    94041048.497          45.000  
E24  26826573.909   140974434.734          40.000    26826593.922   108019365.305          45.000    26826598.925   105273119.235          42.000  
E25  23499939.538   123493091.566          48.000    23499943.952    94624632.986          53.000    23499947.222    92218940.873          51.000  
E34  26945319.302   141598755.561          38.000    26945338.779   108497894.926          45.000    26945341.978   105739499.897          39.000  
E36  23524942.893   123624842.496          48.000    23524948.129    94725778.532          53.000    23524951.381    92317535.712          50.000  
> 2023 02 16 09 20 41.0000000  0 37                     
R11  20352540.795          51.000    20352551.481          52.000  
R12  19625496.103          53.000    19625504.537          53.000  
R13  22913361.931          34.000    22913374.886          39.000  
R21  21788057.440          50.000    21788065.588          48.000  
R22  19767829.161          52.000    19767836.344          54.000  
C01  37110767.290   193245476.807          44.000    37110773.205   149429530.798          47.000    37110774.098   157027930.942          44.000  
C02  38347381.410   199684837.726          40.000    38347385.555   154408827.540          45.000    38347387.271   162260289.504          43.000  
C03  36932938.187   192319489.331          44.000    36932942.386   148713495.099          48.000    36932943.047   156275241.835          46.000  
C04  38127655.076   198540678.590          41.000    38127660.919   153524216.315          45.000    38127660.991   161330528.885          43.000  
C07  36079944.276   187877790.217          46.000    36079943.436   145279055.231          50.000    36079942.113   152666110.454          49.000  
C08  38138067.642   198595203.902          40.000    38138076.308   153566595.437          45.000    38138072.859   161375014.084          43.000  
C09  38931730.554   202727665.980          38.000    38931745.135   156761934.770          41.000    38931740.364   164732858.429          38.000  
C10  36705319.928   191134318.898          45.000    36705322.179   147797232.064          48.000    36705320.750   155312326.786          47.000  
C13  38889268.216   202506846.908          41.000    38889289.748   156591341.629          42.000    38889284.887   164553559.729          42.000  
C24  24807904.130   129181294.759          43.000                                                    24807909.008   104970411.640          45.000  
C26  22250088.475   115862137.138          50.000                                                    22250094.265    94147541.841          51.000  
C29  24281986.191   126442871.048          45.000                                                    24281989.497   102745299.620          44.000  
C35  21815008.608   113596808.702          50.000                                                    21815013.397    92306879.374          52.000  
C38  37214273.338   193784830.658          47.000                                                    37214279.717   157466217.682          48.000  
C40  36288978.036   188966331.309          48.000                                                    36288981.896   153550693.883          51.000  
C44  23971615.414   124826719.059          46.000                                                    23971622.544   101432043.835          46.000  
C45  23494902.600   122344095.295          47.000                                                    23494906.192    99414609.797          48.000  
G01  20249654.731   106413080.673          48.000    20249659.485    82919471.562          57.000    20249659.413    79464583.485          53.000  
G03  22396617.376   117695345.706          43.000    22396628.794    91710841.941          48.000    22396631.511    87889635.291          48.000  
G07  22728248.681   119437618.011          41.000    22728265.281    93068250.845          42.000                                                  
G08  24109218.792   126694914.245          38.000    24109228.102    98723407.907          24.000    24109229.102    94609972.107          42.000  
G14  20925287.046   109963249.226          46.000    20925289.816    85685702.931          42.000    20925294.802    82115509.168          52.000  
G17  22271294.467   117036644.153          44.000    22271297.397    91197493.173          48.000                                                  
G21  22554271.388   118523865.171          43.000    22554273.282    92356430.656          35.000                                                  
G30  22069627.747   115976716.858          45.000    22069635.306    90371511.552          49.000    22069637.736    86606049.169          48.000  
E02  24634898.751   129457342.981          45.000    24634902.951    99194696.406          50.000    24634906.346    96672807.627          48.000  
E10  26461122.762   139054413.200          40.000    26461127.837   106548362.339          45.000    26461131.178   103839536.422          43.000  
E11  23964496.574   125934651.397          44.000    23964496.807    96495583.637          47.000    23964500.077    94042342.881          45.000  
E24  26827041.773   140976893.737          40.000    26827061.876   108021249.445          45.000    26827066.933   105274955.464          42.000  
E25  23500021.074   123493519.914          48.000    23500025.488    94624961.200          53.000    23500028.704    92219260.741          51.000  
E34  26944861.480   141596349.363          38.000    26944880.868   108496051.234          45.000    26944883.977   105737703.080          39.000  
E36  23524827.781   123624237.489          48.000    23524832.999    94725314.958          53.000    23524836.251    92317083.925          50.000  
> 2023 02 16 09 20 42.0000000  0 37                     
R11  20353114.605          51.000    20353125.202          52.000  
R12  19625238.735          53.000    19625247.223          53.000  
R13  22912621.313          34.000    22912633.929          39.000  
R21  21788599.050          50.000    21788607.216          47.000  
R22  19767995.342          52.000    19768002.401          54.000  
C01  37110759.553   193245436.842          44.000    37110765.521   149429499.893          47.000    37110766.451   157027898.461          44.000  
C02  38347378.372   199684821.436          40.000    38347382.500   154408814.946          45.000    38347384.126   162260276.263          43.000  
C03  36932929.360   192319443.467          44.000    36932933.523   148713459.631          48.000    36932934.220   156275204.562          46.000  
C04  38127650.466   198540654.357          41.000    38127656.291   153524197.576          45.000    38127656.345   161330509.191          43.000  
C07  36079877.070   187877440.043          46.000    36079876.177   145278784.448          50.000    36079874.890   152665825.907          49.000  
C08  38137765.584   198593630.882          40.000    38137774.250   153565379.090          46.000    38137770.748   161373735.886          43.000  
C09  38932082.412   202729501.078          38.000    38932097.601   156763353.757          41.000    38932092.759   164734349.565          38.000  
C10  36705222.541   191133811.829          45.000    36705224.793   147796839.959          49.000    36705223.399   155311914.751          47.000  
C13  38888984.187   202505367.858          41.000    38889005.845   156590197.941          42.000    38889000.841   164552357.880          42.000  
C24  24807456.886   129178965.825          43.000                                                    24807461.765   104968519.191          45.000  
C26  22250109.775   115862248.332          50.000                                                    22250115.618    94147632.192          51.000  
C29  24282393.515   126444992.046          45.000                                                    24282396.839   102747023.103          45.000  
C35  21815091.770   113597241.744          50.000                                                    21815096.541    92307231.259          52.000  
C38  37214021.974   193783521.847          47.000                                                    37214028.371   157465154.173          48.000  
C40  36288905.327   188965952.711          48.000                                                    36288909.205   153550386.241          51.000  
C44  23971305.476   124825105.191          46.000                                                    23971312.624   101430732.441          46.000  
C45  23495446.730   122346929.163          47.000                                                    23495450.428    99416912.535          49.000  
G01  20249962.650   106414699.165          48.000    20249967.475    82920732.727          57.000    20249967.368    79465792.095          53.000  
G03  22396135.306   117692812.742          43.000    22396146.778    91708868.215          48.000    22396149.476    87887743.813          48.000  
G07  22728835.321   119440700.198          41.000    22728851.814    93070652.514          42.000                                                  
G08  24109645.326   126697156.055          38.000    24109654.743    98725154.763          24.000    24109655.851    94611646.175          42.000  
G14  20924919.820   109961319.301          46.000    20924922.554    85684199.093          42.000    20924927.522    82114067.992          52.000  
G17  22271047.981   117035348.831          45.000    22271050.912    91196483.834          49.000                                                  
G21  22554838.747   118526847.125          43.000    22554840.731    92358754.254          35.000                                                  
G30  22069936.899   115978341.196          45.000    22069944.404    90372777.263          49.000    22069946.852    86607262.149          48.000  
E02  24634534.759   129455429.976          45.000    24634538.923    99193230.597          50.000    24634542.282    96671379.080          48.000  
E10  26461598.793   139056915.449          40.000    26461603.993   106550279.644          45.000    26461607.263   103841404.976          43.000  
E11  23964826.776   125936386.492          43.000    23964826.991    96496913.128          47.000    23964830.207    94043638.567          45.000  
E24  26827510.138   140979354.486          40.000    26827530.152   108023134.923          45.000    26827535.298   105276792.997          42.000  
E25  23500102.950   123493950.180          48.000    23500107.364    94625290.880          53.000    23500110.598    92219582.037          51.000  
E34  26944404.104   141593944.906          38.000    26944423.278   108494208.877          44.000    26944426.351   105735907.563          39.000  
E36  23524713.008   123623634.399          48.000    23524718.244    94724852.845          53.000    23524721.478    92316633.563          50.000  
> 2023 02 16 09 20 43.0000000  0 37                     
R11  20353688.290          51.000    20353698.815          52.000  
R12  19624981.278          53.000    19624989.820          53.000  
R13  22911881.178          35.000    22911892.847          39.000  
R21  21789140.463          50.000    21789148.611          47.000  
R22  19768161.328          52.000    19768168.333          54.000  
C01  37110751.601   193245395.540          44.000    37110757.587   149429467.967          47.000    37110758.535   157027864.914          44.000  
C02  38347375.013   199684803.801          40.000    38347379.123   154408801.316          45.000    38347380.731   162260261.940          43.000  
C03  36932920.336   192319396.257          45.000    36932924.499   148713423.134          48.000    36932925.178   156275166.207          46.000  
C04  38127645.480   198540628.783          41.000    38127651.359   153524177.808          45.000    38127651.431   161330488.415          43.000  
C07  36079809.632   187877088.514          46.000    36079808.632   145278512.632          50.000    36079807.363   152665540.268          49.000  
C08  38137463.079   198592056.641          41.000    38137471.906   153564161.793          45.000    38137468.368   161372456.686          43.000  
C09  38932433.950   202731334.794          38.000    38932449.800   156764771.696          41.000    38932444.993   164735839.612          38.000  
C10  36705124.923   191133303.417          45.000    36705127.157   147796446.829          48.000    36705125.745   155311501.627          47.000  
C13  38888699.927   202503887.517          41.000    38888721.638   156589053.263          42.000    38888716.563   164551154.985          42.000  
C24  24807009.374   129176635.906          43.000                                                    24807014.360   104966625.948          45.000  
C26  22250130.932   115862358.725          50.000                                                    22250136.847    94147721.901          51.000  
C29  24282800.643   126447111.701          45.000                                                    24282803.895   102748745.499          45.000  
C35  21815174.718   113597673.630          50.000                                                    21815179.472    92307582.204          52.000  
C38  37213770.396   193782211.832          47.000                                                    37213776.829   157464089.681          48.000  
C40  36288832.314   188965572.738          48.000                                                    36288836.245   153550077.487          51.000  
C44  23970995.288   124823490.171          46.000                                                    23971002.471   101429420.105          46.000  
C45  23495990.663   122349761.960          47.000                                                    23495994.451    99419214.400          49.000  
G01  20250270.516   106416316.821          48.000    20250275.305    82921993.238          57.000    20250275.198    79467000.089          53.000  
G03  22395653.146   117690278.805          43.000    22395664.582    91706893.730          48.000    22395667.262    87885851.602          48.000  
G07  22729421.621   119443781.201          41.000    22729438.132    93073053.264          42.000                                                  
G08  24110072.020   126699396.509          38.000    24110081.080    98726900.571          24.000    24110082.348    94613319.237          42.000  
G14  20924552.290   109959388.402          46.000    20924555.113    85682694.498          43.000    20924560.081    82112626.089          52.000  
G17  22270801.300   117034052.242          45.000    22270804.194    91195473.507          49.000                                                  
G21  22555405.999   118529827.844          43.000    22555407.965    92361076.892          35.000                                                  
G30  22070245.872   115979964.676          45.000    22070253.359    90374042.308          49.000    22070255.790    86608474.479          48.000  
E02  24634170.499   129453515.827          45.000    24634174.663    99191763.907          50.000    24634178.040    96669949.687          48.000  
E10  26462074.716   139059416.376          40.000    26462079.934   106552195.944          45.000    26462083.186   103843272.562          43.000  
E11  23965156.692   125938120.434          44.000    23965156.960    96498241.731          47.000    23965160.176    94044933.394          45.000  
E24  26827978.271   140981814.103          40.000    26827998.248   108025019.526          45.000    26828003.305   105278629.687          42.000  
E25  23500184.665   123494379.461          48.000    23500189.079    94625619.809          53.000    23500192.277    92219902.608          51.000  
E34  26943946.747   141591539.295          38.000    26943965.474   108492365.628          44.000    26943968.422   105734111.188          39.000  
E36  23524598.057   123623030.295          48.000    23524603.275    94724389.967          53.000    23524606.527    92316182.451          50.000  
> 2023 02 16 09 20 44.0000000  0 37                     
R11  20354261.832          51.000    20354272.482          52.000  
R12  19624723.964          53.000    19624732.524          53.000  
R13  22911140.632          34.000    22911151.800          39.000  
R21  21789681.716          50.000    21789689.882          47.000  
R22  19768327.313          52.000    19768334.282          53.000  
C01  37110743.650   193245353.965          44.000    37110749.600   149429435.816          47.000    37110750.529   157027831.125          44.000  
C02  38347371.510   199684785.901          40.000    38347375.602   154408787.467          45.000    38347377.228   162260247.392          43.000  
C03  36932911.258   192319348.784          44.000    36932915.404   148713386.425          48.000    36932916.047   156275127.629          46.000  
C04  38127640.602   198540602.951          41.000    38127646.463   153524157.817          45.000    38127646.463   161330467.412          43.000  
C07  36079742.088   187876736.711          46.000    36079741.087   145278240.587          50.000    36079739.800   152665254.395          49.000  
C08  38137160.717   198590482.202          41.000    38137169.545   153562944.355          45.000    38137166.042   161371177.351          43.000  
C09  38932785.344   202733168.258          37.000    38932801.962   156766189.426          41.000    38932797.102   164737329.444          38.000  
C10  36705027.251   191132794.708          45.000    36705029.520   147796053.463          48.000    36705028.055   155311088.257          47.000  
C13  38888415.399   202502407.008          41.000    38888437.324   156587908.451          42.000    38888432.195   164549951.973          42.000  
C24  24806561.916   129174306.069          43.000                                                    24806566.884   104964732.755          45.000  
C26  22250152.196   115862469.398          50.000                                                    22250158.111    94147811.822          52.000  
C29  24283207.628   126449231.083          45.000                                                    24283210.898   102750467.663          45.000  
C35  21815257.648   113598105.419          50.000                                                    21815262.402    92307933.061          52.000  
C38  37213518.783   193780901.677          47.000                                                    37213525.215   157463025.073          48.000  
C40  36288759.266   188965192.465          48.000                                                    36288763.233   153549768.482          51.000  
C44  23970685.100   124821875.058          46.000                                                    23970692.301   101428107.699          46.000  
C45  23496534.685   122352594.755          47.000                                                    23496538.473    99421516.257          49.000  
G01  20250578.417   106417934.744          48.000    20250583.188    82923253.957          57.000    20250583.081    79468208.274          53.000  
G03  22395170.968   117687744.968          43.000    22395182.404    91704919.325          48.000    22395185.049    87883959.455          48.000  
G07  22730008.029   119446862.123          41.000    22730024.450    93075453.950          43.000                                                  
G08  24110498.589   126701636.676          38.000    24110507.399    98728646.156          24.000    24110508.739    94614992.093          42.000  
G14  20924184.778   109957457.605          46.000    20924187.690    85681189.982          43.000    20924192.676    82111184.256          52.000  
G17  22270554.653   117032755.469          45.000    22270557.441    91194463.036          49.000                                                  
G21  22555973.198   118532808.398          43.000    22555975.163    92363399.400          35.000                                                  
G30  22070554.810   115981588.365          45.000    22070562.333    90375307.518          49.000    22070564.745    86609686.961          48.000  
E02  24633806.329   129451601.604          45.000    24633810.385    99190297.178          50.000    24633813.762    96668520.237          48.000  
E10  26462550.533   139061917.093          40.000    26462555.768   106554112.073          45.000    26462559.092   103845139.978          43.000  
E11  23965486.679   125939854.306          43.000    23965486.894    96499570.284          47.000    23965490.110    94046228.168          45.000  
E24  26828446.368   140984273.628          39.000    26828466.345   108026904.068          45.000    26828471.331   105280466.306          42.000  
E25  23500266.398   123494808.847          48.000    23500270.776    94625948.815          53.000    23500273.992    92220223.249          51.000  
E34  26943489.282   141589133.619          38.000    26943507.687   108490522.334          44.000    26943510.618   105732314.753          39.000  
E36  23524483.106   123622426.283          48.000    23524488.341    94723927.153          53.000    23524491.593    92315731.399          50.000  
> 2023 02 16 09 20 45.0000000  0 37                     
R11  20354835.625          51.000    20354846.382          52.000  
R12  19624466.901          53.000    19624475.460          53.000  
R13  22910399.640          34.000    22910410.808          39.000  
R21  21790223.201          50.000    21790231.331          47.000  
R22  19768493.406          52.000    19768500.393          53.000  
C01  37110735.841   193245312.954          44.000    37110741.720   149429404.099          47.000    37110742.649   157027797.803          45.000  
C02  38347368.008   199684768.541          40.000    38347372.261   154408774.051          45.000    38347373.905   162260233.298          43.000  
C03  36932902.252   192319301.876          45.000    36932906.380   148713350.151          48.000    36932907.041   156275089.505          46.000  
C04  38127635.724   198540577.656          41.000    38127641.657   153524138.273          45.000    38127641.585   161330446.872          43.000  
C07  36079674.614   187876385.461          46.000    36079673.649   145277968.983          50.000    36079672.345   152664968.977          49.000  
C08  38136858.499   198588908.455          41.000    38136867.272   153561727.436          45.000    38136863.806   161369898.543          44.000  
C09  38933137.221   202735002.271          37.000    38933154.268   156767607.585          41.000    38933149.372   164738819.709          39.000  
C10  36704929.579   191132286.517          45.000    36704931.955   147795660.498          48.000    36704930.437   155310675.312          48.000  
C13  38888131.049   202500927.164          41.000    38888153.260   156586764.155          42.000    38888148.007   164548749.474          42.000  
C24  24806114.655   129171977.130          42.000                                                    24806119.604   104962840.311          45.000  
C26  22250173.675   115862581.175          50.000                                                    22250179.571    94147902.655          52.000  
C29  24283614.631   126451351.026          45.000                                                    24283617.972   102752190.297          45.000  
C35  21815340.722   113598537.965          51.000                                                    21815345.493    92308284.547          52.000  
C38  37213267.205   193779592.226          47.000                                                    37213273.745   157461961.046          49.000  
C40  36288686.342   188964812.725          48.000                                                    36288690.291   153549459.914          51.000  
C44  23970375.072   124820260.695          46.000                                                    23970382.273   101426795.899          47.000  
C45  23497078.833   122355428.378          47.000                                                    23497082.656    99423818.799          49.000  
G01  20250886.515   106419553.758          48.000    20250891.268    82924515.527          57.000    20250891.161    79469417.283          53.000  
G03  22394688.880   117685212.049          43.000    22394700.387    91702945.633          48.000    22394703.032    87882068.014          48.000  
G07  22730594.419   119449943.792          41.000    22730610.894    93077855.217          42.000                                                  
G08  24110925.087   126703877.444          38.000    24110933.789    98730392.209          24.000    24110935.255    94616665.385          42.000  
G14  20923817.498   109955527.757          46.000    20923820.446    85679686.206          43.000    20923825.468    82109743.142          52.000  
G17  22270308.132   117031459.349          45.000    22270310.813    91193453.078          49.000                                                  
G21  22556540.521   118535789.651          43.000    22556542.505    92365722.457          35.000                                                  
G30  22070863.855   115983213.116          45.000    22070871.520    90376573.551          49.000    22070873.933    86610900.247          48.000  
E02  24633442.301   129449688.173          45.000    24633446.268    99188831.036          50.000    24633449.645    96667091.379          48.000  
E10  26463026.581   139064418.431          40.000    26463031.763   106556028.680          45.000    26463035.034   103847007.854          43.000  
E11  23965816.809   125941588.967          43.000    23965816.988    96500899.435          47.000    23965820.240    94047523.526          45.000  
E24  26828914.554   140986733.931          40.000    26828934.532   108028789.190          45.000    26828939.678   105282303.508          42.000  
E25  23500348.292   123495239.175          48.000    23500352.670    94626278.547          53.000    23500355.904    92220544.600          51.000  
E34  26943031.960   141586728.718          39.000    26943050.026   108488679.625          44.000    26943052.813   105730518.903          39.000  
E36  23524368.297   123621823.189          48.000    23524373.586    94723465.044          53.000    23524376.785    92315281.041          50.000  
> 2023 02 16 09 20 46.0000000  0 37                     
R11  20355409.113          51.000    20355420.102          52.000  
R12  19624209.658          53.000    19624218.235          53.000  
R13  22909657.736          34.000    22909669.351          39.000  
R21  21790764.257          50.000    21790772.477          47.000  
R22  19768659.266          52.000    19768666.342          54.000  
C01  37110727.657   193245270.465          45.000    37110733.554   149429371.255          47.000    37110734.483   157027763.287          45.000  
C02  38347364.399   199684749.719          40.000    38347368.580   154408759.505          45.000    38347370.295   162260218.003          43.000  
C03  36932893.014   192319253.485          45.000    36932897.106   148713312.729          48.000    36932897.767   156275050.191          46.000  
C04  38127630.506   198540550.913          41.000    38127636.600   153524117.594          45.000    38127636.421   161330425.137          43.000  
C07  36079606.908   187876032.716          46.000    36079605.926   145277696.225          50.000    36079604.639   152664682.343          49.000  
C08  38136555.940   198587333.338          41.000    38136564.768   153560509.474          45.000    38136561.337   161368618.653          44.000  
C09  38933488.687   202736834.798          37.000    38933506.431   156769024.598          42.000    38933501.392   164740308.775          39.000  
C10  36704831.710   191131776.822          45.000    36704834.051   147795266.367          48.000    36704832.550   155310261.139          48.000  
C13  38887846.413   202499445.913          41.000    38887868.839   156585618.776          42.000    38887863.478   164547545.851          42.000  
C24  24805667.232   129169647.074          42.000                                                    24805672.146   104960946.961          46.000  
C26  22250194.957   115862692.034          50.000                                                    22250200.853    94147992.742          52.000  
C29  24284021.330   126453469.492          45.000                                                    24284024.761   102753911.715          45.000  
C35  21815423.544   113598969.214          51.000                                                    21815428.298    92308634.972          52.000  
C38  37213015.519   193778281.435          47.000                                                    37213022.006   157460895.918          49.000  
C40  36288613.115   188964431.481          48.000                                                    36288617.082   153549150.125          51.000  
C44  23970064.866   124818645.038          46.000                                                    23970071.960   101425483.053          47.000  
C45  23497622.748   122358260.801          47.000                                                    23497626.625    99426120.362          49.000  
G01  20251194.326   106421171.816          48.000    20251199.169    82925776.351          57.000    20251199.062    79470625.572          53.000  
G03  22394206.559   117682678.023          43.000    22394218.174    91700971.079          48.000    22394220.819    87880175.740          48.000  
G07  22731180.523   119453024.150          41.000    22731197.087    93080255.460          43.000                                                  
G08  24111351.067   126706116.748          37.000    24111359.948    98732137.117          25.000    24111361.467    94618337.597          42.000  
G14  20923449.968   109953596.801          45.000    20923452.988    85678181.563          43.000    20923458.009    82108301.197          52.000  
G17  22270061.379   117030161.833          45.000    22270063.916    91192442.028          49.000                                                  
G21  22557107.452   118538769.539          43.000    22557109.561    92368044.443          35.000                                                  
G30  22071172.738   115984836.864          45.000    22071180.511    90377838.802          49.000    22071182.906    86612112.780          48.000  
E02  24633077.934   129447773.454          45.000    24633081.883    99187363.921          50.000    24633085.331    96665661.554          48.000  
E10  26463502.434   139066918.320          40.000    26463507.455   106557944.175          45.000    26463510.778   103848874.655          43.000  
E11  23966146.707   125943322.340          43.000    23966146.832    96502227.607          47.000    23966150.102    94048817.932          45.000  
E24  26829382.526   140989192.952          39.000    26829402.468   108030673.344          44.000    26829407.703   105284139.750          42.000  
E25  23500430.007   123495668.391          48.000    23500434.349    94626607.427          53.000    23500437.583    92220865.114          51.000  
E34  26942574.495   141584322.526          39.000    26942592.096   108486835.944          44.000    26942594.848   105728722.095          38.000  
E36  23524253.328   123621218.975          48.000    23524258.581    94723002.077          53.000    23524261.816    92314829.842          50.000  
> 2023 02 16 09 20 47.0000000  0 37                     
R11  20355982.852          51.000    20355994.002          52.000  
R12  19623952.720          53.000    19623961.243          53.000  
R13  22908916.725          34.000    22908928.143          40.000  
R21  21791305.403          49.000    21791313.730          47.000  
R22  19768825.305          52.000    19768832.435          54.000  
C01  37110719.580   193245228.265          44.000    37110725.548   149429338.614          47.000    37110726.388   157027728.991          45.000  
C02  38347360.950   199684731.200          40.000    38347364.988   154408745.167          45.000    38347366.686   162260202.945          43.000  
C03  36932883.865   192319205.385          45.000    36932887.832   148713275.542          48.000    36932888.493   156275011.103          46.000  
C04  38127625.557   198540524.458          41.000    38127631.578   153524097.132          45.000    38127631.328   161330403.640          43.000  
C07  36079539.131   187875680.274          46.000    36079538.220   145277423.689          50.000    36079536.969   152664395.953          49.000  
C08  38136253.400   198585758.626          41.000    38136262.370   153559291.809          45.000    38136258.939   161367339.073          44.000  
C09  38933840.367   202738667.627          37.000    38933858.522   156770441.845          42.000    38933853.429   164741798.078          39.000  
C10  36704733.859   191131267.395          45.000    36704736.254   147794872.446          48.000    36704734.717   155309847.190          48.000  
C13  38887561.956   202497965.032          41.000    38887584.507   156584473.676          42.000    38887579.093   164546342.520          42.000  
C24  24805219.863   129167317.667          42.000                                                    24805224.813   104959054.118          45.000  
C26  22250216.417   115862803.722          50.000                                                    22250222.278    94148083.492          52.000  
C29  24284428.082   126455588.237          45.000                                                    24284431.638   102755633.368          45.000  
C35  21815506.475   113599400.930          51.000                                                    21815511.210    92308985.777          52.000  
C38  37212763.888   193776971.071          47.000                                                    37212770.339   157459831.143          49.000  
C40  36288539.977   188964050.493          48.000                                                    36288543.908   153548840.541          51.000  
C44  23969754.677   124817029.855          46.000                                                    23969761.807   101424170.582          47.000  
C45  23498166.716   122361093.779          47.000                                                    23498170.719    99428422.370          49.000  
G01  20251502.406   106422790.696          48.000    20251507.231    82927037.815          57.000    20251507.106    79471834.478          53.000  
G03  22393724.524   117680144.655          42.000    22393736.068    91698997.040          48.000    22393738.730    87878283.956          48.000  
G07  22731766.716   119456104.992          40.000    22731783.388    93082656.082          43.000                                                  
G08  24111777.243   126708356.390          37.000    24111786.160    98733882.292          25.000    24111787.732    94620010.057          42.000  
G14  20923082.724   109951666.521          45.000    20923085.672    85676677.453          43.000    20923090.693    82106859.754          52.000  
G17  22269814.608   117028864.692          45.000    22269817.092    91191431.272          49.000                                                  
G21  22557674.597   118541749.839          43.000    22557676.705    92370366.752          35.000                                                  
G30  22071481.819   115986461.395          45.000    22071489.646    90379104.666          50.000    22071492.058    86613325.897          48.000  
E02  24632713.709   129445859.237          45.000    24632717.658    99185897.185          50.000    24632721.054    96664232.115          48.000  
E10  26463978.250   139069418.541          40.000    26463983.235   106559859.935          45.000    26463986.559   103850741.704          43.000  
E11  23966476.641   125945056.220          43.000    23966476.784    96503556.171          47.000    23966480.090    94050112.717          45.000  
E24  26829850.587   140991652.454          39.000    26829870.529   108032557.877          44.000    26829875.818   105285976.370          42.000  
E25  23500511.847   123496098.273          48.000    23500516.136    94626936.817          53.000    23500519.406    92221186.134          51.000  
E34  26942116.995   141581916.833          39.000    26942134.328   108484992.632          44.000    26942136.954   105726925.651          38.000  
E36  23524138.466   123620615.394          48.000    23524143.737    94722539.599          53.000    23524146.971    92314379.127          50.000  
> 2023 02 16 09 20 48.0000000  0 37                     
R11  20356556.822          51.000    20356568.026          52.000  
R12  19623695.942          53.000    19623704.429          53.000  
R13  22908175.143          34.000    22908187.115          40.000  
R21  21791846.512          49.000    21791854.982          47.000  
R22  19768991.469          52.000    19768998.617          53.000  
C01  37110711.521   193245186.216          45.000    37110717.454   149429306.104          47.000    37110718.329   157027694.811          45.000  
C02  38347357.412   199684712.802          40.000    38347361.432   154408730.945          45.000    38347363.166   162260187.998          43.000  
C03  36932874.627   192319157.427          45.000    36932878.594   148713238.456          48.000    36932879.273   156274972.138          46.000  
C04  38127620.553   198540498.134          41.000    38127626.486   153524076.782          45.000    38127626.271   161330382.257          43.000  
C07  36079471.497   187875327.968          47.000    36079470.568   145277151.267          50.000    36079469.335   152664109.678          49.000  
C08  38135951.074   198584184.178          41.000    38135959.973   153558074.359          45.000    38135956.595   161366059.712          44.000  
C09  38934192.137   202740500.585          37.000    38934210.631   156771859.174          42.000    38934205.520   164743287.502          39.000  
C10  36704636.044   191130758.099          45.000    36704638.457   147794478.628          48.000    36704636.920   155309433.350          48.000  
C13  38887277.535   202496484.351          41.000    38887300.139   156583328.737          42.000    38887294.689   164545139.372          42.000  
C24  24804772.655   129164988.740          42.000                                                    24804777.534   104957161.681          45.000  
C26  22250237.985   115862916.096          50.000                                                    22250243.846    94148174.803          52.000  
C29  24284834.764   126457707.115          45.000                                                    24284838.570   102757355.131          45.000  
C35  21815589.423   113599832.973          51.000                                                    21815594.176    92309336.845          52.000  
C38  37212512.238   193775660.977          47.000                                                    37212518.725   157458766.587          49.000  
C40  36288466.785   188963669.622          48.000                                                    36288470.752   153548531.049          51.000  
C44  23969444.578   124815415.004          46.000                                                    23969451.690   101422858.385          47.000  
C45  23498710.721   122363927.170          47.000                                                    23498714.849    99430724.708          49.000  
G01  20251810.593   106424410.250          48.000    20251815.418    82928299.808          57.000    20251815.293    79473043.879          53.000  
G03  22393242.615   117677611.813          42.000    22393254.069    91697023.408          48.000    22393256.749    87876392.552          48.000  
G07  22732353.106   119459186.152          40.000    22732369.742    93085056.955          43.000                                                  
G08  24112203.276   126710596.204          37.000    24112212.407    98735627.597          25.000    24112214.105    94621682.648          42.000  
G14  20922715.497   109949736.763          45.000    20922718.464    85675173.746          43.000    20922723.449    82105418.703          52.000  
G17  22269567.908   117027567.789          45.000    22269570.303    91190420.698          49.000                                                  
G21  22558241.760   118544730.408          43.000    22558243.886    92372689.273          35.000                                                  
G30  22071791.060   115988086.566          45.000    22071798.905    90380371.028          50.000    22071801.353    86614539.494          48.000  
E02  24632349.574   129443945.381          45.000    24632353.452    99184430.724          50.000    24632356.865    96662802.934          48.000  
E10  26464454.084   139071918.969          40.000    26464459.070   106561775.846          45.000    26464462.340   103852608.903          43.000  
E11  23966806.664   125946790.468          43.000    23966806.789    96504884.996          47.000    23966810.113    94051407.765          45.000  
E24  26830318.684   140994112.317          40.000    26830338.715   108034442.673          44.000    26830343.933   105287813.234          42.000  
E25  23500593.812   123496528.680          48.000    23500598.047    94627266.612          53.000    23500601.317    92221507.536          51.000  
E34  26941659.244   141579511.487          38.000    26941676.595   108483149.592          44.000    26941679.150   105725129.464          38.000  
E36  23524023.639   123620012.327          48.000    23524028.982    94722077.507          53.000    23524032.217    92313928.782          50.000  
> 2023 02 16 09 20 49.0000000  0 37                     
R11  20357131.222          51.000    20357142.533          52.000  
R12  19623439.539          53.000    19623448.063          53.000  
R13  22907433.507          34.000    22907446.319          39.000  
R21  21792387.979          49.000    21792396.521          47.000  
R22  19769158.044          52.000    19769165.156          53.000  
C01  37110703.766   193245145.792          45.000    37110709.681   149429274.841          47.000    37110710.574   157027661.982          45.000  
C02  38347354.303   199684696.048          40.000    38347358.126   154408718.001          45.000    38347359.949   162260174.396          43.000  
C03  36932865.782   192319111.109          44.000    36932869.677   148713202.640          48.000    36932870.410   156274934.496          46.000  
C04  38127615.854   198540473.462          41.000    38127621.750   153524057.694          45.000    38127621.572   161330362.199          43.000  
C07  36079404.077   187874977.283          46.000    36079403.237   145276880.096          50.000    36079401.969   152663824.719          49.000  
C08  38135649.195   198582611.504          41.000    38135657.915   153556858.266          45.000    38135654.555   161364781.781          44.000  
C09  38934544.174   202742335.153          37.000    38934563.133   156773277.770          42.000    38934557.773   164744778.231          39.000  
C10  36704538.605   191130250.393          45.000    36704540.963   147794086.038          48.000    36704539.444   155309020.800          48.000  
C13  38886993.489   202495005.403          41.000    38887016.111   156582185.130          42.000    38887010.679   164543937.605          42.000  
C24  24804325.805   129162661.799          43.000                                                    24804330.683   104955270.855          46.000  
C26  22250260.018   115863030.656          50.000                                                    22250265.843    94148267.893          52.000  
C29  24285241.784   126459827.640          45.000                                                    24285245.787   102759078.228          45.000  
C35  21815672.782   113600266.824          51.000                                                    21815677.481    92309689.389          52.000  
C38  37212260.928   193774352.657          47.000                                                    37212267.451   157457703.477          49.000  
C40  36288393.898   188963290.352          48.000                                                    36288397.918   153548222.864          51.000  
C44  23969134.801   124813801.964          46.000                                                    23969141.913   101421547.670          47.000  
C45  23499255.172   122366762.462          47.000                                                    23499259.354    99433028.606          49.000  
G01  20252119.173   106426031.985          47.000    20252124.016    82929563.495          57.000    20252123.909    79474254.919          53.000  
G03  22392760.937   117675080.980          42.000    22392772.463    91695051.344          48.000    22392775.143    87874502.662          48.000  
G07  22732939.656   119462269.139          40.000    22732956.435    93087459.248          43.000                                                  
G08  24112629.560   126712837.689          37.000    24112638.977    98737374.206          25.000    24112640.746    94623356.464          42.000  
G14  20922348.664   109947809.033          45.000    20922351.613    85673671.621          43.000    20922356.634    82103979.164          52.000  
G17  22269321.530   117026272.612          45.000    22269323.853    91189411.473          49.000                                                  
G21  22558809.298   118547712.738          43.000    22558811.406    92375013.166          35.000                                                  
G30  22072100.641   115989713.862          45.000    22072108.557    90381639.048          50.000    22072111.041    86615754.680          48.000  
E02  24631985.708   129442033.371          45.000    24631989.621    99182965.680          50.000    24631993.016    96661375.139          48.000  
E10  26464930.186   139074421.088          40.000    26464935.225   106563693.052          45.000    26464938.531   103854477.371          43.000  
E11  23967137.044   125948526.564          43.000    23967137.151    96506215.256          47.000    23967140.457    94052704.201          45.000  
E24  26830787.299   140996574.041          40.000    26830807.152   108036328.891          44.000    26830812.405   105289651.493          42.000  
E25  23500676.135   123496961.109          48.000    23500680.334    94627597.947          53.000    23500683.586    92221830.452          51.000  
E34  26941201.833   141577107.988          38.000    26941219.201   108481307.968          44.000    26941221.703   105723334.657          39.000  
E36  23523909.260   123619411.258          48.000    23523914.603    94721616.947          53.000    23523917.837    92313479.932          50.000  
> 2023 02 16 09 20 50.0000000  0 37                     
R11  20357706.247          51.000    20357717.505          52.000  
R12  19623183.673          53.000    19623192.250          53.000  
R13  22906692.532          34.000    22906706.005          39.000  
R21  21792929.607          49.000    21792938.435          47.000  
R22  19769325.084          52.000    19769332.142          53.000  
C01  37110696.386   193245107.241          45.000    37110702.301   149429245.035          47.000    37110703.176   157027630.656          45.000  
C02  38347351.533   199684681.151          40.000    38347355.178   154408706.475          45.000    38347357.108   162260162.282          43.000  
C03  36932857.204   192319066.646          45.000    36932861.100   148713168.254          48.000    36932861.850   156274898.371          46.000  
C04  38127611.511   198540450.641          41.000    38127617.390   153524040.048          45.000    38127617.212   161330343.656          43.000  
C07  36079337.050   187874628.449          46.000    36079336.246   145276610.363          50.000    36079334.960   152663541.261          49.000  
C08  38135347.494   198581040.784          41.000    38135356.214   153555643.703          45.000    38135352.873   161363505.454          44.000  
C09  38934896.659   202744171.594          37.000    38934915.993   156774697.805          41.000    38934910.489   164746270.464          38.000  
C10  36704441.486   191129744.543          45.000    36704443.827   147793694.882          48.000    36704442.273   155308609.748          48.000  
C13  38886709.854   202493528.406          41.000    38886732.351   156581043.040          42.000    38886727.008   164542737.443          42.000  
C24  24803879.276   129160337.076          42.000                                                    24803884.225   104953381.823          45.000  
C26  22250282.479   115863147.630          50.000                                                    22250288.304    94148362.943          52.000  
C29  24285649.269   126461950.013          45.000                                                    24285653.326   102760802.833          45.000  
C35  21815756.516   113600702.722          51.000                                                    21815761.198    92310043.590          52.000  
C38  37212010.083   193773046.335          47.000                                                    37212016.605   157456641.985          49.000  
C40  36288321.439   188962912.921          48.000                                                    36288325.441   153547916.170          51.000  
C44  23968825.345   124812190.975          46.000                                                    23968832.529   101420238.607          47.000  
C45  23499800.160   122369599.886          47.000                                                    23499804.269    99435334.224          49.000  
G01  20252428.165   106427656.125          47.000    20252433.079    82930829.060          57.000    20252432.954    79475467.749          53.000  
G03  22392279.653   117672552.389          42.000    22392291.268    91693081.027          48.000    22392293.966    87872614.446          48.000  
G07  22733526.565   119465354.183          40.000    22733543.540    93089863.145          43.000                                                  
G08  24113055.968   126715081.042          37.000    24113065.939    98739122.269          25.000    24113067.655    94625031.708          42.000  
G14  20921982.296   109945883.569          45.000    20921985.208    85672171.258          43.000    20921990.230    82102541.315          52.000  
G17  22269075.384   117024979.415          45.000    22269077.779    91188403.790          49.000                                                  
G21  22559377.157   118550697.072          43.000    22559379.302    92377338.622          35.000                                                  
G30  22072410.722   115991343.540          45.000    22072418.674    90382908.921          50.000    22072421.176    86616971.639          48.000  
E02  24631622.252   129440123.462          45.000    24631626.147    99181502.243          50.000    24631629.542    96659948.908          48.000  
E10  26465406.646   139076925.132          40.000    26465411.757   106565611.735          45.000    26465415.009   103856347.270          43.000  
E11  23967467.818   125950264.743          43.000    23967467.925    96507547.112          47.000    23967471.213    94054002.198          45.000  
E24  26831256.254   140999037.830          39.000    26831276.071   108038216.711          44.000    26831281.342   105291491.309          42.000  
E25  23500758.868   123497395.792          48.000    23500763.050    94627931.020          53.000    23500766.302    92222155.052          51.000  
E34  26940744.654   141574706.571          38.000    26940762.272   108479467.948          44.000    26940764.578   105721541.410          38.000  
E36  23523795.291   123618812.425          47.000    23523800.652    94721158.106          53.000    23523803.868    92313032.756          50.000  
> 2023 02 16 09 20 51.0000000  0 37                     
R11  20358281.076          51.000    20358292.155          52.000  
R12  19622927.484          53.000    19622936.133          53.000  
R13  22905952.129          33.000    22905965.191          39.000  
R21  21793470.842          49.000    21793479.938          47.000  
R22  19769491.712          53.000    19769498.753          54.000  
C01  37110688.417   193245066.386          45.000    37110694.438   149429213.444          47.000    37110695.278   157027597.458          45.000  
C02  38347348.209   199684663.946          40.000    38347351.944   154408693.175          45.000    38347353.802   162260148.306          43.000  
C03  36932848.252   192319019.898          45.000    36932852.183   148713132.110          48.000    36932852.862   156274860.385          46.000  
C04  38127606.705   198540425.536          41.000    38127612.655   153524020.635          45.000    38127612.405   161330323.251          43.000  
C07  36079269.648   187874277.312          46.000    36079268.773   145276338.842          50.000    36079267.504   152663255.936          49.000  
C08  38135045.525   198579467.877          41.000    38135054.085   153554427.441          45.000    38135050.832   161362227.352          44.000  
C09  38935248.750   202746005.720          36.000    38935268.316   156776116.061          42.000    38935262.759   164747760.840          39.000  
C10  36704343.850   191129236.372          45.000    36704346.262   147793301.937          48.000    36704344.690   155308196.831          48.000  
C13  38886425.629   202492049.208          41.000    38886448.180   156579899.240          42.000    38886443.016   164541535.486          42.000  
C24  24803432.622   129158010.408          43.000                                                    24803437.428   104951491.224          46.000  
C26  22250304.637   115863262.847          50.000                                                    22250310.426    94148456.567          52.000  
C29  24286056.308   126464070.096          45.000                                                    24286060.489   102762525.567          45.000  
C35  21815839.875   113601136.510          51.000                                                    21815844.503    92310396.080          52.000  
C38  37211758.755   193771737.852          47.000                                                    37211765.313   157455578.741          49.000  
C40  36288248.551   188962533.169          48.000                                                    36288252.518   153547607.590          51.000  
C44  23968515.586   124810577.874          46.000                                                    23968522.733   101418927.835          47.000  
C45  23500344.629   122372435.280          47.000                                                    23500348.810    99437638.207          49.000  
G01  20252736.870   106429278.482          48.000    20252741.802    82932093.234          57.000    20252741.677    79476679.256          53.000  
G03  22391798.154   117670021.870          42.000    22391809.716    91691109.208          48.000    22391812.432    87870724.786          48.000  
G07  22734113.062   119468437.109          40.000    22734130.234    93092265.392          43.000                                                  
G08  24113482.359   126717322.139          37.000    24113492.401    98740868.576          25.000    24113494.152    94626705.242          42.000  
G14  20921615.498   109943956.170          45.000    20921618.429    85670669.392          43.000    20921623.468    82101102.031          52.000  
G17  22268828.917   117023683.991          45.000    22268831.293    91187394.371          49.000                                                  
G21  22559944.517   118553679.231          43.000    22559946.786    92379662.380          35.000                                                  
G30  22072720.482   115992971.399          45.000    22072728.451    90384177.380          50.000    22072730.935    86618187.246          48.000  
E02  24631258.438   129438211.446          45.000    24631262.298    99180037.198          50.000    24631265.711    96658521.110          48.000  
E10  26465882.695   139079426.926          40.000    26465887.841   106567528.689          45.000    26465891.075   103858215.488          43.000  
E11  23967798.216   125952000.821          43.000    23967798.287    96508877.348          47.000    23967801.557    94055298.614          45.000  
E24  26831724.780   141001499.527          40.000    26831744.507   108040102.902          44.000    26831749.778   105293329.550          42.000  
E25  23500841.227   123497828.544          48.000    23500845.390    94628262.607          53.000    23500848.678    92222478.213          51.000  
E34  26940286.939   141572303.064          38.000    26940304.897   108477626.300          44.000    26940307.184   105719746.590          38.000  
E36  23523680.983   123618211.643          48.000    23523686.308    94720697.771          53.000    23523689.560    92312584.125          50.000  
> 2023 02 16 09 20 52.0000000  0 37                     
R11  20358856.048          51.000    20358867.126          52.000  
R12  19622671.707          53.000    19622680.374          53.000  
R13  22905211.315          33.000    22905224.610          39.000  
R21  21794012.327          49.000    21794021.673          47.000  
R22  19769658.663          53.000    19769665.632          53.000  
C01  37110680.697   193245026.602          45.000    37110686.790   149429182.678          47.000    37110687.630   157027565.121          45.000  
C02  38347345.189   199684647.845          40.000    38347348.852   154408680.721          45.000    38347350.693   162260135.220          43.000  
C03  36932839.407   192318974.220          45.000    36932843.410   148713096.788          48.000    36932844.089   156274823.267          46.000  
C04  38127602.237   198540401.506          41.000    38127607.991   153524002.051          45.000    38127607.795   161330303.722          43.000  
C07  36079202.425   187873927.248          46.000    36079201.514   145276068.143          50.000    36079200.281   152662971.483          49.000  
C08  38134743.628   198577896.162          40.000    38134752.223   153553212.096          45.000    38134748.989   161360950.201          44.000  
C09  38935600.805   202747840.923          36.000    38935620.926   156777535.142          42.000    38935615.226   164749252.085          39.000  
C10  36704246.446   191128729.242          45.000    36704248.930   147792909.789          48.000    36704247.286   155307784.740          48.000  
C13  38886141.780   202490571.176          41.000    38886164.331   156578756.345          42.000    38886159.149   164540334.466          42.000  
C24  24802986.164   129155685.165          43.000                                                    24802990.864   104949601.768          45.000  
C26  22250327.080   115863379.690          50.000                                                    22250332.834    94148551.514          52.000  
C29  24286463.614   126466191.245          45.000                                                    24286467.814   102764249.177          45.000  
C35  21815923.395   113601571.553          51.000                                                    21815928.041    92310749.588          52.000  
C38  37211507.696   193770430.588          47.000                                                    37211514.271   157454516.479          49.000  
C40  36288175.788   188962154.455          48.000                                                    36288179.791   153547299.859          51.000  
C44  23968205.933   124808966.032          46.000                                                    23968213.224   101417618.088          47.000  
C45  23500889.312   122375272.024          47.000                                                    23500893.565    99439943.273          49.000  
G01  20253045.932   106430902.462          48.000    20253050.829    82933358.675          57.000    20253050.704    79477891.966          53.000  
G03  22391317.013   117667492.801          42.000    22391328.431    91689138.519          48.000    22391331.147    87868836.213          48.000  
G07  22734699.827   119471521.305          40.000    22734717.178    93094668.630          43.000                                                  
G08  24113908.767   126719564.307          37.000    24113919.131    98742615.718          25.000    24113920.811    94628379.588          42.000  
G14  20921249.022   109942030.239          45.000    20921251.935    85669168.668          43.000    20921256.974    82099663.835          52.000  
G17  22268582.717   117022389.747          45.000    22268585.005    91186385.871          49.000                                                  
G21  22560512.287   118556662.559          43.000    22560514.467    92381987.053          35.000                                                  
G30  22073030.617   115994600.822          45.000    22073038.515    90385447.055          50.000    22073040.998    86619404.025          48.000  
E02  24630894.857   129436300.724          45.000    24630898.699    99178573.145          50.000    24630902.094    96657094.281          48.000  
E10  26466359.136   139081929.834          41.000    26466364.158   106569446.513          45.000    26466367.374   103860084.558          43.000  
E11  23968128.882   125953738.197          43.000    23968128.900    96510208.588          47.000    23968132.134    94056596.007          45.000  
E24  26832193.556   141003962.504          39.000    26832213.211   108041990.088          44.000    26832218.465   105295168.753          42.000  
E25  23500923.800   123498262.748          48.000    23500928.052    94628595.311          53.000    23500931.287    92222802.461          51.000  
E34  26939829.384   141569900.822          38.000    26939847.790   108475785.648          44.000    26939850.112   105717952.739          38.000  
E36  23523566.979   123617612.300          47.000    23523572.250    94720238.534          53.000    23523575.502    92312136.565          50.000  
> 2023 02 16 09 20 53.0000000  0 37                     
R11  20359430.590          51.000    20359441.598          52.000  
R12  19622415.501          53.000    19622424.203          53.000  
R13  22904470.126          33.000    22904483.617          38.000  
R21  21794553.437          49.000    21794562.800          47.000  
R22  19769825.148          53.000    19769832.010          54.000  
C01  37110672.388   193244983.791          45.000    37110678.589   149429149.578          47.000    37110679.375   157027530.341          45.000  
C02  38347341.347   199684628.701          40.000    38347345.207   154408665.919          45.000    38347347.012   162260119.652          43.000  
C03  36932830.008   192318925.506          45.000    36932834.118   148713059.117          48.000    36932834.743   156274783.681          46.000  
C04  38127597.091   198540374.437          41.000    38127602.702   153523981.122          45.000    38127602.541   161330281.727          43.000  
C07  36079134.648   187873574.152          47.000    36079133.701   145275795.104          50.000    36079132.486   152662684.563          49.000  
C08  38134441.177   198576321.520          41.000    38134449.861   153551994.485          45.000    38134446.574   161359670.682          44.000  
C09  38935952.325   202749673.066          37.000    38935972.963   156778951.874          42.000    38935967.067   164750740.847          39.000  
C10  36704148.435   191128219.030          45.000    36704150.900   147792515.268          48.000    36704149.346   155307370.151          48.000  
C13  38885857.537   202489090.184          41.000    38885879.802   156577611.164          42.000    38885874.709   164539131.062          42.000  
C24  24802539.117   129153357.229          43.000                                                    24802543.816   104947710.139          46.000  
C26  22250349.006   115863494.044          50.000                                                    22250354.813    94148644.431          52.000  
C29  24286870.474   126468309.359          45.000                                                    24286874.584   102765970.311          45.000  
C35  21816006.361   113602003.732          51.000                                                    21816011.042    92311100.771          52.000  
C38  37211256.118   193769120.419          47.000                                                    37211262.693   157453451.866          49.000  
C40  36288102.490   188961772.682          49.000                                                    36288106.474   153546989.635          52.000  
C44  23967895.834   124807351.335          46.000                                                    23967903.107   101416306.015          47.000  
C45  23501433.513   122378105.996          47.000                                                    23501437.820    99442246.093          49.000  
G01  20253354.513   106432523.900          47.000    20253359.373    82934622.135          57.000    20253359.266    79479102.780          53.000  
G03  22390835.210   117664961.033          42.000    22390846.647    91687165.723          48.000    22390849.381    87866945.622          48.000  
G07  22735286.306   119474602.602          40.000    22735303.567    93097069.607          43.000                                                  
G08  24114335.158   126721803.432          37.000    24114345.254    98744360.491          25.000    24114346.844    94630051.662          42.000  
G14  20920881.975   109940101.619          45.000    20920884.923    85667665.850          43.000    20920889.980    82098223.632          52.000  
G17  22268335.857   117021092.521          45.000    22268338.180    91185375.048          50.000                                                  
G21  22561079.432   118559642.966          43.000    22561081.630    92384309.449          35.000                                                  
G30  22073340.126   115996227.683          45.000    22073348.078    90386714.735          50.000    22073350.597    86620618.875          48.000  
E02  24630530.704   129434387.146          46.000    24630534.528    99177106.893          50.000    24630537.924    96655665.309          48.000  
E10  26466834.774   139084429.735          40.000    26466839.813   106571362.015          45.000    26466843.065   103861951.352          43.000  
E11  23968458.941   125955472.717          43.000    23968458.941    96511537.636          47.000    23968462.247    94057891.261          45.000  
E24  26832661.813   141006422.619          39.000    26832681.451   108043875.083          44.000    26832686.598   105297005.819          42.000  
E25  23501005.943   123498694.268          48.000    23501010.161    94628925.951          53.000    23501013.431    92223124.689          51.000  
E34  26939371.151   141567495.742          38.000    26939390.057   108473942.788          44.000    26939392.487   105716156.740          39.000  
E36  23523452.420   123617010.245          48.000    23523457.674    94719777.219          53.000    23523460.926    92311686.981          50.000  
> 2023 02 16 09 20 54.0000000  0 37                     
R11  20360005.365          51.000    20360016.355          52.000  
R12  19622159.563          53.000    19622168.301          53.000  
R13  22903729.205          33.000    22903742.821          39.000  
R21  21795094.547          49.000    21795104.160          47.000  
R22  19769991.795          53.000    19769998.603          54.000  
C01  37110664.329   193244941.721          45.000    37110670.458   149429117.041          47.000    37110671.334   157027496.153          45.000  
C02  38347337.720   199684610.292          40.000    38347341.687   154408651.682          45.000    38347343.527   162260104.705          43.000  
C03  36932820.841   192318877.545          45.000    36932824.969   148713022.036          48.000    36932825.523   156274744.714          46.000  
C04  38127592.106   198540348.113          41.000    38127597.681   153523960.772          45.000    38127597.520   161330260.343          43.000  
C07  36079067.049   187873221.797          47.000    36079065.995   145275522.637          50.000    36079064.816   152662398.241          49.000  
C08  38134139.012   198574747.744          40.000    38134147.661   153550777.550          45.000    38134144.373   161358391.871          44.000  
C09  38936304.416   202751505.959          36.000    38936325.037   156780369.161          42.000    38936318.997   164752230.216          39.000  
C10  36704050.619   191127709.568          45.000    36704053.032   147792121.308          48.000    36704051.531   155306956.166          48.000  
C13  38885573.473   202487610.038          41.000    38885595.417   156576466.635          42.000    38885590.431   164537928.334          42.000  
C24  24802092.284   129151030.401          43.000                                                    24802096.966   104945819.401          46.000  
C26  22250371.288   115863609.707          50.000                                                    22250377.042    94148738.414          52.000  
C29  24287277.477   126470428.215          45.000                                                    24287281.533   102767692.052          45.000  
C35  21816089.577   113602436.856          51.000                                                    21816094.205    92311452.718          52.000  
C38  37211004.736   193767811.136          47.000                                                    37211011.258   157452387.965          49.000  
C40  36288029.352   188961391.627          49.000                                                    36288033.283   153546679.994          51.000  
C44  23967585.914   124805737.580          46.000                                                    23967593.169   101414994.706          47.000  
C45  23501977.911   122380940.986          47.000                                                    23501982.253    99444549.736          49.000  
G01  20253663.343   106434146.618          48.000    20253668.168    82935886.591          58.000    20253668.060    79480314.550          53.000  
G03  22390353.658   117662430.403          42.000    22390365.059    91685193.817          48.000    22390367.810    87865055.881          48.000  
G07  22735873.035   119477684.844          40.000    22735890.136    93099471.319          43.000                                                  
G08  24114761.566   126724043.335          37.000    24114771.502    98746105.865          25.000    24114773.092    94631724.305          42.000  
G14  20920515.177   109938174.142          45.000    20920518.126    85666163.920          43.000    20920523.183    82096784.286          52.000  
G17  22268089.246   117019796.146          45.000    22268091.498    91184364.888          50.000                                                  
G21  22561646.738   118562624.260          43.000    22561648.954    92386632.535          35.000                                                  
G30  22073649.993   115997855.776          45.000    22073657.891    90387983.375          50.000    22073660.410    86621834.649          48.000  
E02  24630166.766   129432474.540          45.000    24630170.572    99175641.399          50.000    24630173.967    96654237.064          48.000  
E10  26467310.644   139086930.445          40.000    26467315.755   106573278.141          45.000    26467318.935   103863818.763          43.000  
E11  23968789.160   125957208.206          43.000    23968789.160    96512867.426          47.000    23968792.538    94059187.249          45.000  
E24  26833130.071   141008883.709          39.000    26833149.816   108045760.812          44.000    26833154.980   105298843.606          42.000  
E25  23501088.266   123499126.923          48.000    23501092.465    94629257.466          53.000    23501095.753    92223447.776          51.000  
E34  26938913.186   141565091.598          38.000    26938932.520   108472100.683          44.000    26938934.933   105714361.453          39.000  
E36  23523338.041   123616409.311          48.000    23523343.330    94719316.763          53.000    23523346.564    92311238.230          50.000  
> 2023 02 16 09 20 55.0000000  0 37                     
R11  20360580.408          51.000    20360591.362          52.000  
R12  19621903.982          53.000    19621912.703          53.000  
R13  22902989.874          33.000    22903002.168          38.000  
R21  21795636.085          49.000    21795645.663          48.000  
R22  19770158.709          53.000    19770165.482          53.000  
C01  37110656.395   193244900.469          44.000    37110662.578   149429085.148          47.000    37110663.418   157027462.637          45.000  
C02  38347334.450   199684592.708          40.000    38347338.328   154408638.083          45.000    38347340.132   162260090.407          43.000  
C03  36932811.853   192318830.387          45.000    36932815.909   148712985.570          48.000    36932816.499   156274706.389          46.000  
C04  38127587.120   198540322.615          41.000    38127592.820   153523941.052          45.000    38127592.660   161330239.622          43.000  
C07  36078999.522   187872870.236          46.000    36078998.486   145275250.792          50.000    36078997.307   152662112.573          49.000  
C08  38133837.025   198573174.886          41.000    38133845.549   153549561.324          45.000    38133842.297   161357113.801          44.000  
C09  38936656.382   202753339.676          36.000    38936677.307   156781787.091          42.000    38936671.160   164753720.230          39.000  
C10  36703953.001   191127200.879          45.000    36703955.324   147791727.962          48.000    36703953.841   155306542.810          48.000  
C13  38885289.463   202486130.806          41.000    38885311.281   156575322.807          42.000    38885306.314   164536726.341          42.000  
C24  24801645.594   129148704.733          43.000                                                    24801650.329   104943929.606          46.000  
C26  22250393.767   115863726.704          50.000                                                    22250399.503    94148833.484          52.000  
C29  24287684.587   126472547.876          45.000                                                    24287688.572   102769414.450          45.000  
C35  21816172.882   113602870.966          51.000                                                    21816177.582    92311805.468          52.000  
C38  37210753.516   193766502.799          47.000                                                    37210759.984   157451324.838          49.000  
C40  36287956.357   188961011.351          48.000                                                    36287960.270   153546370.994          52.000  
C44  23967276.101   124804124.810          46.000                                                    23967283.499   101413684.202          47.000  
C45  23502522.523   122383777.055          47.000                                                    23502526.919    99446854.255          49.000  
G01  20253972.441   106435770.691          48.000    20253977.212    82937152.100          57.000    20253977.123    79481527.332          53.000  
G03  22389872.106   117659900.955          42.000    22389883.703    91683222.831          48.000    22389886.437    87863167.023          48.000  
G07  22736459.961   119480768.072          40.000    22736476.883    93101873.800          43.000                                                  
G08  24115188.243   126726284.065          37.000    24115197.910    98747851.888          25.000    24115199.429    94633397.578          42.000  
G14  20920148.684   109936247.855          45.000    20920151.579    85664662.920          43.000    20920156.618    82095345.828          52.000  
G17  22267842.672   117018500.675          45.000    22267844.995    91183355.430          50.000                                                  
G21  22562214.294   118565606.470          43.000    22562216.456    92388956.335          35.000                                                  
G30  22073960.092   115999485.191          45.000    22073967.954    90389253.043          50.000    22073970.474    86623051.419          48.000  
E02  24629803.024   129430562.958          46.000    24629806.812    99174176.682          50.000    24629810.190    96652809.591          48.000  
E10  26467786.621   139089432.010          40.000    26467791.803   106575194.925          45.000    26467795.020   103865686.815          43.000  
E11  23969119.702   125958944.709          43.000    23969119.648    96514198.003          47.000    23969122.972    94060483.994          45.000  
E24  26833598.472   141011345.802          39.000    26833618.378   108047647.326          44.000    26833623.524   105300682.149          42.000  
E25  23501170.767   123499560.761          48.000    23501175.038    94629589.892          53.000    23501178.308    92223771.750          51.000  
E34  26938455.685   141562688.496          38.000    26938475.234   108470259.345          44.000    26938477.611   105712566.940          39.000  
E36  23523223.947   123615809.539          48.000    23523229.183    94718857.209          53.000    23523232.435    92310790.359          50.000  
> 2023 02 16 09 20 56.0000000  0 37                     
R11  20361155.559          51.000    20361166.530          52.000  
R12  19621648.723          53.000    19621657.301          53.000  
R13  22902249.614          33.000    22902261.676          38.000  
R21  21796177.910          49.000    21796187.202          47.000  
R22  19770325.767          53.000    19770332.450          53.000  
C01  37110648.443   193244859.507          44.000    37110654.751   149429053.470          47.000    37110655.520   157027429.340          45.000  
C02  38347331.126   199684575.398          40.000    38347335.004   154408624.700          45.000    38347336.809   162260076.356          43.000  
C03  36932802.883   192318783.513          45.000    36932806.921   148712949.327          48.000    36932807.493   156274668.305          46.000  
C04  38127582.135   198540297.390          41.000    38127587.924   153523921.556          45.000    38127587.835   161330219.129          43.000  
C07  36078932.103   187872518.954          46.000    36078930.995   145274979.158          50.000    36078929.869   152661827.126          49.000  
C08  38133535.057   198571602.436          41.000    38133543.580   153548345.419          45.000    38133540.328   161355836.056          44.000  
C09  38937008.741   202755173.654          36.000    38937029.612   156783205.232          42.000    38937023.322   164755210.485          39.000  
C10  36703855.383   191126692.456          45.000    36703857.634   147791334.819          48.000    36703856.240   155306129.679          48.000  
C13  38885005.471   202484651.922          41.000    38885027.289   156574179.265          42.000    38885022.250   164535524.639          42.000  
C24  24801199.029   129146379.708          43.000                                                    24801203.818   104942040.332          46.000  
C26  22250416.372   115863844.550          50.000                                                    22250422.108    94148929.243          52.000  
C29  24288091.822   126474667.818          45.000                                                    24288095.664   102771137.075          45.000  
C35  21816256.312   113603305.544          51.000                                                    21816261.048    92312158.600          52.000  
C38  37210502.402   193765194.875          47.000                                                    37210508.799   157450262.052          49.000  
C40  36287883.398   188960631.332          48.000                                                    36287887.293   153546062.197          51.000  
C44  23966966.413   124802512.512          46.000                                                    23966973.829   101412374.087          47.000  
C45  23503067.207   122386613.682          47.000                                                    23503071.638    99449159.233          49.000  
G01  20254281.701   106437395.574          48.000    20254286.400    82938418.245          57.000    20254286.329    79482740.717          53.000  
G03  22389390.822   117657372.168          42.000    22389402.472    91681252.361          48.000    22389405.224    87861278.661          48.000  
G07  22737046.887   119483851.778          40.000    22737063.738    93104276.658          42.000                                                  
G08  24115614.812   126728525.121          37.000    24115624.390    98749598.163          25.000    24115625.695    94635071.085          42.000  
G14  20919782.226   109934322.241          45.000    20919785.138    85663162.443          43.000    20919790.195    82093907.871          52.000  
G17  22267596.133   117017205.574          45.000    22267598.545    91182346.263          49.000                                                  
G21  22562782.028   118568589.102          43.000    22562784.030    92391280.463          35.000                                                  
G30  22074270.280   116001115.368          45.000    22074278.178    90390523.307          50.000    22074280.715    86624268.750          48.000  
E02  24629439.372   129428651.884          46.000    24629443.124    99172712.346          50.000    24629446.519    96651382.488          48.000  
E10  26468262.706   139091933.915          40.000    26468267.923   106577111.966          45.000    26468271.086   103867555.118          43.000  
E11  23969450.261   125960681.733          43.000    23969450.171    96515528.953          47.000    23969453.495    94061781.108          45.000  
E24  26834066.926   141013808.394          39.000    26834087.047   108049534.211          44.000    26834092.264   105302521.059          42.000  
E25  23501253.412   123499995.276          48.000    23501257.718    94629922.821          53.000    23501261.006    92224096.219          51.000  
E34  26937998.328   141560285.864          38.000    26938017.984   108468418.392          44.000    26938020.575   105710772.790          39.000  
E36  23523109.943   123615210.430          48.000    23523115.178    94718398.143          53.000    23523118.430    92310342.966          50.000  
> 2023 02 16 09 20 57.0000000  0 37                     
R11  20361730.905          51.000    20361741.877          52.000  
R12  19621393.482          53.000    19621402.095          53.000  
R13  22901508.836          33.000    22901521.148          38.000  
R21  21796719.806          49.000    21796728.812          48.000  
R22  19770492.878          53.000    19770499.561          54.000  
C01  37110640.670   193244818.743          44.000    37110646.907   149429021.955          47.000    37110647.711   157027396.214          45.000  
C02  38347327.838   199684558.292          40.000    38347331.823   154408611.475          45.000    38347333.467   162260062.455          43.000  
C03  36932793.948   192318736.847          45.000    36932798.004   148712913.239          48.000    36932798.540   156274630.387          46.000  
C04  38127577.257   198540272.381          41.000    38127583.118   153523902.217          45.000    38127583.010   161330198.811          43.000  
C07  36078864.719   187872167.860          46.000    36078863.557   145274707.675          50.000    36078862.413   152661541.836          49.000  
C08  38133233.088   198570030.306          41.000    38133241.737   153547129.762          45.000    38133238.449   161354558.581          44.000  
C09  38937361.047   202757007.841          36.000    38937381.936   156784623.520          42.000    38937375.539   164756700.903          39.000  
C10  36703757.800   191126184.194          45.000    36703760.051   147790941.795          48.000    36703758.586   155305716.675          48.000  
C13  38884721.514   202483173.337          41.000    38884743.350   156573035.936          42.000    38884738.275   164534323.184          42.000  
C24  24800752.411   129144055.230          43.000                                                    24800757.379   104940151.510          45.000  
C26  22250439.101   115863963.140          50.000                                                    22250444.873    94149025.606          52.000  
C29  24288499.057   126476787.959          45.000                                                    24288502.827   102772859.868          45.000  
C35  21816339.868   113603740.503          51.000                                                    21816344.603    92312512.040          52.000  
C38  37210251.271   193763887.299          47.000                                                    37210257.668   157449199.540          49.000  
C40  36287810.456   188960251.490          48.000                                                    36287814.352   153545753.544          51.000  
C44  23966656.761   124800900.603          46.000                                                    23966664.266   101411064.283          47.000  
C45  23503612.123   122389450.775          47.000                                                    23503616.518    99451464.594          49.000  
G01  20254591.103   106439021.212          48.000    20254595.749    82939684.976          57.000    20254595.677    79483954.669          53.000  
G03  22388909.698   117654843.961          42.000    22388921.349    91679282.344          48.000    22388924.118    87859390.726          48.000  
G07  22737633.795   119486935.877          40.000    22737650.664    93106679.819          42.000                                                  
G08  24116041.346   126730766.411          37.000    24116050.888    98751344.619          24.000    24116052.049    94636744.778          42.000  
G14  20919416.000   109932397.228          46.000    20919418.823    85661662.435          43.000    20919423.863    82092470.362          52.000  
G17  22267349.630   117015910.778          45.000    22267352.185    91181337.335          50.000                                                  
G21  22563349.727   118571572.072          43.000    22563351.675    92393604.855          35.000                                                  
G30  22074580.647   116002746.264          45.000    22074588.527    90391794.130          50.000    22074591.065    86625486.620          48.000  
E02  24629075.791   129426741.221          46.000    24629079.525    99171248.345          50.000    24629082.920    96649955.700          48.000  
E10  26468738.772   139094436.078          40.000    26468744.079   106579029.204          45.000    26468747.170   103869423.625          43.000  
E11  23969780.873   125962419.164          43.000    23969780.802    96516860.240          47.000    23969784.126    94063078.554          45.000  
E24  26834535.631   141016271.400          39.000    26834555.823   108051421.420          45.000    26834560.933   105304360.290          42.000  
E25  23501336.199   123500430.373          48.000    23501340.541    94630256.213          53.000    23501343.793    92224421.135          51.000  
E34  26937541.256   141557883.660          37.000    26937560.840   108466577.776          44.000    26937563.557   105708978.950          39.000  
E36  23522995.992   123614611.873          48.000    23523001.281    94717939.517          53.000    23523004.515    92309895.998          50.000  
> 2023 02 16 09 20 58.0000000  0 37                     
R11  20362306.431          51.000    20362317.385          52.000  
R12  19621138.509          53.000    19621147.068          53.000  
R13  22900768.683          34.000    22900780.727          38.000  
R21  21797261.612          49.000    21797270.476          48.000  
R22  19770660.061          53.000    19770666.779          53.000  
C01  37110632.862   193244778.177          44.000    37110639.134   149428990.582          47.000    37110639.920   157027363.260          45.000  
C02  38347324.568   199684541.380          40.000    38347328.553   154408598.389          45.000    38347330.233   162260048.709          43.000  
C03  36932784.978   192318690.369          45.000    36932789.052   148712877.297          48.000    36932789.642   156274592.618          46.000  
C04  38127572.450   198540247.571          41.000    38127578.311   153523883.017          45.000    38127578.204   161330178.642          43.000  
C07  36078797.334   187871816.956          47.000    36078796.155   145274436.332          50.000    36078795.047   152661256.700          49.000  
C08  38132931.370   198568458.475          41.000    38132939.858   153545914.320          45.000    38132936.605   161353281.344          44.000  
C09  38937713.603   202758842.197          36.000    38937734.331   156786041.945          42.000    38937727.844   164758191.460          39.000  
C10  36703660.253   191125676.096          45.000    36703662.469   147790548.903          48.000    36703661.003   155305303.806          48.000  
C13  38884437.611   202481695.017          41.000    38884459.447   156571892.819          42.000    38884454.426   164533121.933          42.000  
C24  24800306.079   129141731.292          43.000                                                    24800311.118   104938263.113          45.000  
C26  22250462.063   115864082.461          50.000                                                    22250467.799    94149122.566          52.000  
C29  24288906.274   126478908.286          45.000                                                    24288910.009   102774582.807          45.000  
C35  21816423.566   113604175.826          51.000                                                    21816428.195    92312865.775          52.000  
C38  37210000.318   193762580.044          47.000                                                    37210006.680   157448137.287          49.000  
C40  36287737.640   188959871.802          49.000                                                    36287741.428   153545445.016          51.000  
C44  23966347.216   124799289.058          46.000                                                    23966354.774   101409754.771          47.000  
C45  23504157.038   122392288.330          47.000                                                    23504161.416    99453770.318          49.000  
G01  20254900.576   106440647.545          48.000    20254905.222    82940952.250          57.000    20254905.169    79485169.136          53.000  
G03  22388428.682   117652316.301          42.000    22388440.333    91677312.752          47.000    22388443.138    87857503.209          48.000  
G07  22738220.900   119490020.323          40.000    22738237.661    93109083.248          42.000                                                  
G08  24116468.005   126733007.910          37.000    24116477.493    98753091.232          25.000    24116478.494    94638418.605          42.000  
G14  20919049.828   109930472.770          45.000    20919052.598    85660162.858          43.000    20919057.655    82091033.277          52.000  
G17  22267103.162   117014616.252          45.000    22267105.861    91180328.616          50.000                                                  
G21  22563917.497   118574555.335          43.000    22563919.374    92395929.476          35.000                                                  
G30  22074891.050   116004377.811          45.000    22074898.984    90393065.461          50.000    22074901.557    86626704.982          48.000  
E02  24628712.371   129424830.954          45.000    24628715.980    99169784.627          50.000    24628719.429    96648529.202          48.000  
E10  26469215.017   139096938.470          40.000    26469220.289   106580946.625          45.000    26469223.380   103871292.292          43.000  
E11  23970111.522   125964156.985          43.000    23970111.450    96518191.815          47.000    23970114.828    94064376.269          45.000  
E24  26835004.532   141018734.799          39.000    26835024.563   108053308.919          44.000    26835029.763   105306199.797          42.000  
E25  23501419.111   123500866.021          48.000    23501423.435    94630590.022          53.000    23501426.687    92224746.453          51.000  
E34  26937084.399   141555481.834          38.000    26937103.715   108464737.407          44.000    26937106.592   105707185.392          39.000  
E36  23522882.238   123614013.856          48.000    23522887.473    94717481.296          53.000    23522890.726    92309449.429          50.000  
> 2023 02 16 09 20 59.0000000  0 37                     
R11  20362881.688          51.000    20362892.624          52.000  
R12  19620883.286          53.000    19620891.845          53.000  
R13  22900028.030          34.000    22900039.895          38.000  
R21  21797803.044          50.000    21797811.800          48.000  
R22  19770826.921          53.000    19770833.694          54.000  
C01  37110624.731   193244735.642          45.000    37110630.968   149428957.705          47.000    37110631.718   157027328.702          45.000  
C02  38347320.887   199684522.491          40.000    38347324.944   154408583.803          45.000    38347326.606   162260033.362          43.000  
C03  36932775.686   192318641.934          45.000    36932779.671   148712839.855          48.000    36932780.332   156274553.270          46.000  
C04  38127567.304   198540220.782          41.000    38127573.236   153523862.320          45.000    38127573.111   161330156.890          43.000  
C07  36078729.611   187871464.090          47.000    36078728.378   145274163.479          50.000    36078727.252   152660969.976          49.000  
C08  38132629.258   198566884.798          41.000    38132637.639   153544697.478          45.000    38132634.369   161352002.624          44.000  
C09  38938065.926   202760674.597          37.000    38938086.368   156787458.874          42.000    38938079.632   164759680.421          38.000  
C10  36703562.223   191125166.018          45.000    36703564.528   147790154.492          49.000    36703563.027   155304889.335          48.000  
C13  38884153.369   202480214.813          41.000    38884175.169   156570748.254          42.000    38884170.183   164531919.170          42.000  
C24  24799859.424   129139405.744          43.000                                                    24799864.517   104936373.429          45.000  
C26  22250484.685   115864200.374          50.000                                                    22250490.457    94149218.384          52.000  
C29  24289313.044   126481026.647          45.000                                                    24289316.815   102776304.153          45.000  
C35  21816506.800   113604609.386          51.000                                                    21816511.446    92313218.084          52.000  
C38  37209748.883   193761270.965          47.000                                                    37209755.298   157447073.568          49.000  
C40  36287664.323   188959490.122          48.000                                                    36287668.129   153545134.880          51.000  
C44  23966037.402   124797675.745          46.000                                                    23966044.979   101408443.831          47.000  
C45  23504701.633   122395124.192          47.000                                                    23504705.993    99456074.679          49.000  
G01  20255209.782   106442272.443          48.000    20255214.428    82942218.405          57.000    20255214.374    79486382.541          53.000  
G03  22387947.416   117649787.044          42.000    22387959.013    91675341.916          48.000    22387961.782    87855614.500          48.000  
G07  22738807.558   119493102.988          41.000    22738824.319    93111485.293          43.000                                                  
G08  24116894.270   126735247.458          37.000    24116903.651    98754836.332          24.000    24116904.580    94640090.999          42.000  
G14  20918683.370   109928546.727          46.000    20918686.086    85658662.045          43.000    20918691.125    82089594.994          52.000  
G17  22266856.391   117013319.842          45.000    22266859.179    91179318.429          50.000                                                  
G21  22564484.893   118577536.761          43.000    22564486.715    92398252.665          35.000                                                  
G30  22075201.202   116006007.880          45.000    22075209.172    90394335.640          50.000    22075211.763    86627922.236          48.000  
E02  24628348.557   129422918.923          46.000    24628352.131    99168319.573          50.000    24628355.580    96647101.393          48.000  
E10  26469690.851   139099438.937          40.000    26469696.123   106582862.577          45.000    26469699.286   103873159.528          43.000  
E11  23970441.884   125965893.049          43.000    23970441.866    96519522.048          47.000    23970445.190    94065672.680          45.000  
E24  26835472.897   141021196.434          39.000    26835493.017   108055195.074          45.000    26835498.271   105308037.996          42.000  
E25  23501501.719   123501300.084          48.000    23501506.026    94630922.611          53.000    23501509.278    92225070.591          51.000  
E34  26936627.291   141553078.239          38.000    26936646.322   108462895.725          44.000    26936649.377   105705390.533          39.000  
E36  23522768.108   123613414.234          48.000    23522773.380    94717021.854          53.000    23522776.614    92309001.666          50.000  
> 2023 02 16 09 21 00.0000000  0 37                     
R11  20363457.249          51.000    20363468.221          52.000  
R12  19620628.492          53.000    19620636.961          53.000  
R13  22899287.841          34.000    22899299.492          38.000  
R21  21798344.725          50.000    21798353.392          48.000  
R22  19770994.104          53.000    19771000.948          54.000  
C01  37110616.797   193244694.305          45.000    37110623.087   149428925.725          47.000    37110623.766   157027295.102          44.000  
C02  38347317.457   199684504.827          40.000    38347321.477   154408570.130          45.000    38347323.228   162260019.004          43.000  
C03  36932766.662   192318594.700          45.000    36932770.611   148712803.322          48.000    36932771.254   156274514.877          46.000  
C04  38127562.407   198540195.205          41.000    38127568.322   153523842.538          45.000    38127568.197   161330136.103          43.000  
C07  36078662.137   187871112.415          47.000    36078660.887   145273891.531          50.000    36078659.725   152660684.205          49.000  
C08  38132327.200   198565312.432          41.000    38132335.724   153543481.627          45.000    38132332.400   161350724.948          43.000  
C09  38938418.357   202762508.179          37.000    38938438.513   156788876.692          42.000    38938431.830   164761170.347          38.000  
C10  36703464.533   191124657.114          45.000    36703466.838   147789760.962          49.000    36703465.302   155304475.800          47.000  
C13  38883869.340   202478735.918          42.000    38883891.176   156569604.676          42.000    38883886.173   164530717.444          42.000  
C24  24799413.003   129137081.748          43.000                                                    24799418.238   104934484.992          45.000  
C26  22250507.700   115864320.037          50.000                                                    22250513.436    94149315.616          52.000  
C29  24289719.976   126483146.203          45.000                                                    24289723.871   102778026.462          45.000  
C35  21816590.356   113605044.325          51.000                                                    21816594.966    92313571.502          52.000  
C38  37209497.770   193759963.229          47.000                                                    37209504.131   157446010.921          49.000  
C40  36287591.221   188959109.628          49.000                                                    36287595.045   153544825.693          51.000  
C44  23965727.929   124796063.819          46.000                                                    23965735.416   101407134.007          46.000  
C45  23505246.531   122397961.520          47.000                                                    23505250.873    99458380.221          49.000  
G01  20255519.291   106443899.078          48.000    20255523.955    82943485.913          57.000    20255523.901    79487597.236          53.000  
G03  22387466.507   117647259.381          42.000    22387477.996    91673372.322          48.000    22387480.766    87853726.970          48.000  
G07  22739394.519   119496187.055          41.000    22739411.245    93113888.427          43.000                                                  
G08  24117320.804   126737488.220          38.000    24117330.042    98756582.374          25.000    24117330.828    94641764.297          42.000  
G14  20918317.270   109926622.275          46.000    20918319.861    85657162.474          43.000    20918324.936    82088157.903          52.000  
G17  22266609.906   117012024.735          45.000    22266612.729    91178309.257          50.000                                                  
G21  22565052.556   118580519.510          44.000    22565054.325    92400576.883          35.000                                                  
G30  22075511.730   116007639.653          45.000    22075519.700    90395607.145          50.000    22075522.273    86629140.757          48.000  
E02  24627984.958   129421008.315          46.000    24627988.514    99166855.601          50.000    24627991.981    96645674.636          48.000  
E10  26470166.936   139101940.666          41.000    26470172.189   106584779.479          45.000    26470175.406   103875027.694          43.000  
E11  23970772.497   125967630.524          44.000    23970772.515    96520853.358          47.000    23970775.821    94066970.145          45.000  
E24  26835941.762   141023659.475          40.000    26835961.775   108057082.305          45.000    26835966.993   105309877.236          42.000  
E25  23501584.667   123501735.730          48.000    23501588.938    94631256.420          53.000    23501592.190    92225395.908          51.000  
E34  26936170.434   141550676.070          38.000    26936189.143   108461055.105          44.000    26936192.431   105703596.714          39.000  
E36  23522654.336   123612816.170          48.000    23522659.554    94716563.595          53.000    23522662.824    92308555.057          51.000  
> 2023 02 16 09 21 01.0000000  0 37                     
R11  20364032.757          51.000    20364043.890          52.000  
R12  19620373.661          53.000    19620382.185          53.000  
R13  22898547.438          34.000    22898559.160          38.000  
R21  21798885.978          50.000    21798894.859          48.000  
R22  19771161.287          53.000    19771168.148          54.000  
C01  37110608.864   193244652.570          45.000    37110615.082   149428893.455          47.000    37110615.743   157027261.194          44.000  
C02  38347313.936   199684486.775          40.000    38347318.100   154408556.169          45.000    38347319.762   162260004.331          43.000  
C03  36932757.477   192318547.074          45.000    36932761.444   148712766.485          48.000    36932762.088   156274476.176          46.000  
C04  38127557.493   198540169.248          41.000    38127563.337   153523822.466          45.000    38127563.176   161330115.003          43.000  
C07  36078594.575   187870760.339          47.000    36078593.288   145273619.290          50.000    36078592.091   152660398.114          49.000  
C08  38132025.142   198563739.772          41.000    38132033.684   153542265.551          45.000    38132030.432   161349447.047          43.000  
C09  38938770.788   202764341.363          37.000    38938790.747   156790294.226          42.000    38938783.832   164762659.962          38.000  
C10  36703366.665   191124147.772          45.000    36703369.059   147789367.110          49.000    36703367.469   155304061.917          47.000  
C13  38883585.259   202477256.668          41.000    38883607.023   156568460.844          42.000    38883602.038   164529515.443          42.000  
C24  24798966.652   129134757.714          43.000                                                    24798971.942   104932596.529          45.000  
C26  22250530.787   115864439.849          50.000                                                    22250536.469    94149412.973          52.000  
C29  24290126.889   126485265.375          45.000                                                    24290130.802   102779748.458          45.000  
C35  21816673.912   113605479.043          51.000                                                    21816678.450    92313924.751          52.000  
C38  37209246.514   193758655.229          47.000                                                    37209252.929   157444948.076          48.000  
C40  36287518.173   188958728.701          49.000                                                    36287521.889   153544516.161          51.000  
C44  23965418.366   124794451.681          46.000                                                    23965425.835   101405824.020          46.000  
C45  23505791.482   122400798.723          47.000                                                    23505795.753    99460685.669          49.000  
G01  20255828.818   106445525.845          48.000    20255833.518    82944753.523          57.000    20255833.464    79488812.027          53.000  
G03  22386985.455   117644731.691          42.000    22386996.980    91671402.703          48.000    22386999.732    87851839.423          48.000  
G07  22739981.427   119499270.893          41.000    22739998.135    93116291.386          43.000                                                  
G08  24117747.301   126739728.598          38.000    24117756.325    98758328.116          25.000    24117757.022    94643437.300          42.000  
G14  20917951.116   109924697.811          46.000    20917953.653    85655662.892          43.000    20917958.728    82086720.803          52.000  
G17  22266363.313   117010729.317          45.000    22266366.244    91177299.842          50.000                                                  
G21  22565620.129   118583501.989          44.000    22565621.881    92402900.888          35.000                                                  
G30  22075822.294   116009271.517          45.000    22075830.228    90396878.723          50.000    22075832.819    86630359.346          48.000  
E02  24627621.324   129419097.520          46.000    24627624.915    99165391.487          50.000    24627628.364    96644247.750          48.000  
E10  26470642.931   139104442.036          41.000    26470648.184   106586696.118          45.000    26470651.437   103876895.612          43.000  
E11  23971103.092   125969367.809          43.000    23971103.110    96522184.538          47.000    23971106.433    94068267.479          45.000  
E24  26836410.520   141026122.322          40.000    26836430.462   108058969.393          45.000    26836435.608   105311716.341          42.000  
E25  23501667.615   123502171.357          48.000    23501671.815    94631590.210          53.000    23501675.103    92225721.217          51.000  
E34  26935713.523   141548273.696          38.000    26935731.964   108459214.356          44.000    26935735.395   105701802.755          39.000  
E36  23522540.457   123612218.074          48.000    23522545.728    94716105.318          53.000    23522549.034    92308108.433          51.000  
> 2023 02 16 09 21 02.0000000  0 37                     
R11  20364608.622          51.000    20364619.772          52.000  
R12  19620119.010          53.000    19620127.641          53.000  
R13  22897807.697          34.000    22897818.811          38.000  
R21  21799427.392          50.000    21799436.505          48.000  
R22  19771328.630          53.000    19771335.563          54.000  
C01  37110601.001   193244611.323          45.000    37110607.202   149428861.563          47.000    37110607.845   157027227.678          45.000  
C02  38347310.684   199684469.163          40.000    38347314.705   154408542.557          45.000    38347316.402   162259990.031          43.000  
C03  36932748.382   192318499.910          45.000    36932752.420   148712730.026          48.000    36932753.028   156274437.856          46.000  
C04  38127552.597   198540143.755          41.000    38127558.423   153523802.751          45.000    38127558.226   161330094.290          43.000  
C07  36078527.012   187870408.720          47.000    36078525.797   145273347.400          50.000    36078524.582   152660112.397          49.000  
C08  38131723.245   198562167.697          41.000    38131731.769   153541049.934          45.000    38131728.552   161348169.615          43.000  
C09  38939123.451   202766175.013          37.000    38939143.000   156791712.096          42.000    38939135.977   164764149.922          38.000  
C10  36703268.903   191123638.874          45.000    36703271.334   147788973.598          49.000    36703269.761   155303648.399          47.000  
C13  38883301.338   202475778.013          42.000    38883323.138   156567317.470          42.000    38883318.063   164528313.932          42.000  
C24  24798520.445   129132434.498          43.000                                                    24798525.788   104930708.725          45.000  
C26  22250553.999   115864560.679          50.000                                                    22250559.681    94149511.154          52.000  
C29  24290533.874   126487385.007          45.000                                                    24290537.823   102781470.830          45.000  
C35  21816757.503   113605914.406          51.000                                                    21816762.059    92314278.519          52.000  
C38  37208995.418   193757347.840          47.000                                                    37209001.833   157443885.712          49.000  
C40  36287445.106   188958348.214          49.000                                                    36287448.823   153544206.983          51.000  
C44  23965108.892   124792840.188          46.000                                                    23965116.344   101404514.557          46.000  
C45  23506336.505   122403636.670          47.000                                                    23506340.758    99462991.718          49.000  
G01  20256138.560   106447153.616          48.000    20256143.260    82946021.919          57.000    20256143.224    79490027.573          53.000  
G03  22386504.528   117642204.846          42.000    22386516.125    91669433.746          48.000    22386518.877    87849952.508          48.000  
G07  22740568.478   119502355.386          41.000    22740585.132    93118694.855          43.000                                                  
G08  24118173.924   126741969.472          38.000    24118182.752    98760074.249          25.000    24118183.449    94645110.672          41.000  
G14  20917585.140   109922774.197          46.000    20917587.588    85654163.977          43.000    20917592.663    82085284.343          52.000  
G17  22266116.917   117009434.456          45.000    22266119.866    91176290.865          50.000                                                  
G21  22566187.757   118586485.053          44.000    22566189.544    92405225.356          35.000                                                  
G30  22076133.036   116010904.338          45.000    22076140.952    90398151.049          50.000    22076143.579    86631578.661          48.000  
E02  24627257.796   129417187.417          46.000    24627261.442    99163927.895          50.000    24627264.855    96642821.370          48.000  
E10  26471118.908   139106943.953          40.000    26471124.304   106588613.160          45.000    26471127.521   103878763.913          43.000  
E11  23971433.776   125971105.794          43.000    23971433.812    96523516.225          47.000    23971437.153    94069565.319          45.000  
E24  26836879.439   141028585.856          40.000    26836899.363   108060856.995          45.000    26836904.438   105313555.958          42.000  
E25  23501750.671   123502607.845          48.000    23501754.906    94631924.657          53.000    23501758.176    92226047.157          51.000  
E34  26935256.827   141545872.015          38.000    26935274.928   108457374.113          44.000    26935278.448   105700009.298          39.000  
E36  23522426.774   123611620.808          48.000    23522432.063    94715647.673          53.000    23522435.351    92307662.419          51.000  
> 2023 02 16 09 21 03.0000000  0 37                     
R11  20365184.684          51.000    20365195.762          52.000  
R12  19619864.537          53.000    19619873.222          53.000  
R13  22897068.062          34.000    22897078.694          38.000  
R21  21799968.823          50.000    21799978.008          48.000  
R22  19771496.081          53.000    19771503.014          54.000  
C01  37110593.032   193244569.922          45.000    37110599.196   149428829.560          47.000    37110599.893   157027194.045          44.000  
C02  38347307.414   199684451.417          40.000    38347311.310   154408528.837          45.000    38347312.989   162259975.608          43.000  
C03  36932739.287   192318452.597          45.000    36932743.289   148712693.453          48.000    36932743.986   156274399.416          46.000  
C04  38127547.648   198540118.117          41.000    38127553.491   153523782.924          45.000    38127553.312   161330073.460          43.000  
C07  36078459.503   187870056.949          47.000    36078458.234   145273075.389          50.000    36078457.001   152659826.557          49.000  
C08  38131421.294   198560595.602          41.000    38131429.889   153539834.302          45.000    38131426.673   161346892.165          43.000  
C09  38939476.150   202768008.511          37.000    38939495.252   156793129.866          42.000    38939488.086   164765639.784          38.000  
C10  36703171.196   191123129.804          45.000    36703173.590   147788579.958          49.000    36703171.982   155303234.745          48.000  
C13  38883017.345   202474299.313          42.000    38883039.253   156566174.065          42.000    38883034.053   164527112.376          42.000  
C24  24798074.255   129130111.485          43.000                                                    24798079.652   104928821.092          45.000  
C26  22250577.300   115864681.913          50.000                                                    22250582.947    94149609.664          52.000  
C29  24290940.752   126489504.488          45.000                                                    24290944.862   102783193.084          45.000  
C35  21816841.130   113606349.807          51.000                                                    21816845.669    92314632.320          52.000  
C38  37208744.323   193756040.436          47.000                                                    37208750.755   157442823.337          49.000  
C40  36287372.093   188957967.557          49.000                                                    36287375.721   153543897.671          51.000  
C44  23964799.436   124791228.744          46.000                                                    23964806.888   101403205.125          46.000  
C45  23506881.546   122406474.734          47.000                                                    23506885.817    99465297.863          49.000  
G01  20256448.391   106448781.768          48.000    20256453.073    82947290.609          57.000    20256453.055    79491243.405          53.000  
G03  22386023.869   117639678.221          43.000    22386035.287    91667464.959          48.000    22386038.057    87848065.756          48.000  
G07  22741155.476   119505439.908          41.000    22741172.148    93121098.344          43.000                                                  
G08  24118600.440   126744210.217          38.000    24118609.124    98761820.280          25.000    24118609.857    94646783.951          42.000  
G14  20917219.200   109920850.819          46.000    20917221.577    85652665.240          43.000    20917226.670    82083848.059          52.000  
G17  22265870.557   117008139.543          45.000    22265873.470    91175281.841          50.000                                                  
G21  22566755.402   118589468.087          44.000    22566757.207    92407549.795          35.000                                                  
G30  22076443.939   116012537.503          45.000    22076451.730    90399423.635          50.000    22076454.393    86632798.220          48.000  
E02  24626894.287   129415277.367          46.000    24626897.968    99162464.364          50.000    24626901.381    96641395.047          48.000  
E10  26471595.046   139109445.752          40.000    26471600.317   106590530.132          45.000    26471603.498   103880632.139          43.000  
E11  23971764.549   125972843.842          43.000    23971764.514    96524847.974          47.000    23971767.873    94070863.209          45.000  
E24  26837348.358   141031049.440          40.000    26837368.228   108062744.654          45.000    26837373.231   105315395.621          42.000  
E25  23501833.815   123503044.544          48.000    23501837.997    94632259.275          53.000    23501841.267    92226373.272          51.000  
E34  26934800.041   141543470.371          38.000    26934817.892   108455533.913          44.000    26934821.591   105698215.894          40.000  
E36  23522313.127   123611023.750          48.000    23522318.434    94715190.189          53.000    23522321.722    92307216.571          51.000  
> 2023 02 16 09 21 04.0000000  0 37                     
R11  20365760.835          51.000    20365771.806          52.000  
R12  19619610.190          53.000    19619618.910          53.000  
R13  22896327.891          34.000    22896338.488          38.000  
R21  21800510.183          50.000    21800519.439          48.000  
R22  19771663.549          53.000    19771670.464          54.000  
C01  37110585.008   193244528.222          45.000    37110591.102   149428797.310          47.000    37110591.870   157027160.153          44.000  
C02  38347303.965   199684433.362          40.000    38347307.861   154408514.883          45.000    38347309.523   162259960.947          43.000  
C03  36932730.048   192318405.000          45.000    36932734.140   148712656.632          48.000    36932734.855   156274360.734          46.000  
C04  38127542.680   198540092.174          41.000    38127548.541   153523762.870          45.000    38127548.327   161330052.379          43.000  
C07  36078391.904   187869704.879          47.000    36078390.600   145272803.148          50.000    36078389.420   152659540.471          49.000  
C08  38131119.415   198559023.297          41.000    38131127.956   153538618.505          45.000    38131124.740   161345614.544          43.000  
C09  38939828.723   202769841.722          37.000    38939847.432   156794547.407          42.000    38939840.124   164767129.409          38.000  
C10  36703073.309   191122620.421          45.000    36703075.757   147788186.070          49.000    36703074.149   155302820.829          47.000  
C13  38882733.210   202472820.365          41.000    38882755.135   156565030.456          42.000    38882750.043   164525910.615          42.000  
C24  24797628.137   129127788.536          43.000                                                    24797633.552   104926933.498          45.000  
C26  22250600.619   115864803.393          50.000                                                    22250606.266    94149708.380          52.000  
C29  24291347.522   126491623.672          45.000                                                    24291351.864   102784915.090          45.000  
C35  21816924.703   113606785.100          51.000                                                    21816929.260    92314986.029          52.000  
C38  37208493.174   193754732.869          47.000                                                    37208499.660   157441760.839          49.000  
C40  36287298.884   188957586.566          49.000                                                    36287302.565   153543588.080          51.000  
C44  23964489.891   124789617.176          46.000                                                    23964497.396   101401895.603          46.000  
C45  23507426.551   122409312.768          47.000                                                    23507430.858    99467603.979          49.000  
G01  20256758.293   106450410.147          48.000    20256762.939    82948559.475          57.000    20256762.922    79492459.402          53.000  
G03  22385543.067   117637151.676          43.000    22385554.485    91665496.236          47.000    22385557.219    87846179.059          48.000  
G07  22741742.706   119508524.315          41.000    22741759.145    93123501.751          43.000                                                  
G08  24119026.598   126746450.692          38.000    24119035.444    98763566.107          25.000    24119036.230    94648457.030          41.000  
G14  20916853.153   109918927.523          46.000    20916855.601    85651166.570          43.000    20916860.676    82082411.831          52.000  
G17  22265624.108   117006844.415          45.000    22265627.038    91174272.658          50.000                                                  
G21  22567323.012   118592450.942          44.000    22567324.834    92409874.100          35.000                                                  
G30  22076754.825   116014170.855          45.000    22076762.544    90400696.375          50.000    22076765.224    86634017.925          48.000  
E02  24626530.777   129413367.235          46.000    24626534.476    99161000.752          50.000    24626537.871    96639968.643          48.000  
E10  26472071.095   139111947.296          40.000    26472076.348   106592446.895          45.000    26472079.511   103882500.180          43.000  
E11  23972095.287   125974581.778          43.000    23972095.198    96526179.643          47.000    23972098.575    94072161.018          45.000  
E24  26837817.205   141033512.927          40.000    26837836.986   108064632.230          45.000    26837841.972   105317235.194          42.000  
E25  23501916.942   123503481.324          48.000    23501921.105    94632593.949          53.000    23501924.358    92226699.433          51.000  
E34  26934343.005   141541068.636          38.000    26934360.874   108453693.638          44.000    26934364.555   105696422.406          40.000  
E36  23522199.480   123610426.737          48.000    23522204.823    94714732.738          53.000    23522208.129    92306770.751          51.000  
> 2023 02 16 09 21 05.0000000  0 37                     
R11  20366337.236          51.000    20366348.100          52.000  
R12  19619356.038          53.000    19619364.901          53.000  
R13  22895588.275          35.000    22895598.460          37.000  
R21  21801051.579          49.000    21801061.049          48.000  
R22  19771831.232          53.000    19771838.147          54.000  
C01  37110577.128   193244487.289          45.000    37110583.257   149428765.665          47.000    37110584.008   157027126.902          45.000  
C02  38347300.695   199684416.087          40.000    38347304.484   154408501.516          45.000    38347306.181   162259946.903          43.000  
C03  36932720.989   192318358.165          45.000    36932725.188   148712620.427          48.000    36932725.813   156274322.677          46.000  
C04  38127537.873   198540067.013          41.000    38127543.699   153523743.418          45.000    38127543.538   161330031.934          43.000  
C07  36078324.484   187869353.571          47.000    36078323.144   145272531.492          50.000    36078321.965   152659255.002          49.000  
C08  38130817.572   198557451.896          41.000    38130826.131   153537403.407          45.000    38130822.986   161344337.664          43.000  
C09  38940181.494   202771675.679          37.000    38940199.738   156795965.535          42.000    38940192.322   164768619.638          38.000  
C10  36702975.637   191122111.791          45.000    36702978.156   147787792.761          49.000    36702976.513   155302407.521          48.000  
C13  38882449.450   202471342.275          41.000    38882471.304   156563887.532          42.000    38882466.122   164524709.574          42.000  
C24  24797182.055   129125466.701          43.000                                                    24797187.684   104925046.827          45.000  
C26  22250624.135   115864926.194          50.000                                                    22250629.853    94149808.166          52.000  
C29  24291754.507   126493743.614          45.000                                                    24291758.974   102786637.715          45.000  
C35  21817008.491   113607221.333          51.000                                                    21817013.048    92315340.509          52.000  
C38  37208242.221   193753426.219          47.000                                                    37208248.761   157440699.081          49.000  
C40  36287225.853   188957206.320          49.000                                                    36287229.552   153543279.104          51.000  
C44  23964180.525   124788006.573          45.000                                                    23964188.084   101400586.860          46.000  
C45  23507971.825   122412151.838          47.000                                                    23507976.113    99469910.946          49.000  
G01  20257068.428   106452039.840          48.000    20257073.056    82949829.365          57.000    20257073.038    79493676.374          52.000  
G03  22385062.569   117634626.281          43.000    22385073.898    91663528.407          48.000    22385076.650    87844293.234          48.000  
G07  22742329.989   119511609.685          41.000    22742346.321    93125905.902          43.000                                                  
G08  24119453.132   126748691.941          38.000    24119461.888    98765312.528          25.000    24119462.728    94650130.691          41.000  
G14  20916487.375   109917005.395          46.000    20916489.823    85649668.808          43.000    20916494.897    82080976.476          52.000  
G17  22265377.855   117005550.162          45.000    22265380.767    91173264.149          50.000                                                  
G21  22567890.836   118595434.710          44.000    22567892.605    92412199.112          35.000                                                  
G30  22077065.889   116015805.478          45.000    22077073.608    90401970.102          50.000    22077076.306    86635238.585          48.000  
E02  24626167.429   129411458.006          46.000    24626171.145    99159537.839          50.000    24626174.594    96638542.923          48.000  
E10  26472547.179   139114449.597          40.000    26472552.540   106594364.240          45.000    26472555.685   103884368.777          43.000  
E11  23972426.204   125976320.711          43.000    23972426.132    96527512.075          47.000    23972429.474    94073459.573          45.000  
E24  26838286.285   141035977.315          40.000    26838305.923   108066520.484          45.000    26838310.998   105319075.442          42.000  
E25  23502000.283   123503919.174          48.000    23502004.429    94632929.444          53.000    23502007.699    92227026.402          51.000  
E34  26933886.040   141538667.794          38.000    26933904.034   108451854.039          44.000    26933907.697   105694629.582          40.000  
E36  23522086.066   123609830.788          48.000    23522091.426    94714276.106          53.000    23522094.714    92306325.727          51.000  
> 2023 02 16 09 21 06.0000000  0 37                     
R11  20366913.690          52.000    20366924.394          52.000  
R12  19619101.995          53.000    19619110.893          53.000  
R13  22894848.104          35.000    22894858.343          38.000  
R21  21801592.778          49.000    21801602.570          48.000  
R22  19771998.951          53.000    19772005.812          54.000  
C01  37110569.123   193244445.865          45.000    37110575.306   149428733.633          47.000    37110576.074   157027093.243          44.000  
C02  38347297.229   199684398.315          40.000    38347301.035   154408487.777          45.000    38347302.804   162259932.461          43.000  
C03  36932711.822   192318310.835          45.000    36932716.128   148712583.826          48.000    36932716.718   156274284.227          46.000  
C04  38127532.995   198540041.358          41.000    38127538.767   153523723.580          45.000    38127538.588   161330011.094          43.000  
C07  36078257.047   187869001.765          47.000    36078255.581   145272259.463          50.000    36078254.402   152658969.134          49.000  
C08  38130515.817   198555880.115          41.000    38130524.305   153536188.022          45.000    38130521.142   161343060.465          43.000  
C09  38940534.157   202773509.140          38.000    38940551.865   156797383.263          42.000    38940544.324   164770109.465          38.000  
C10  36702877.947   191121602.631          45.000    36702880.413   147787399.051          49.000    36702878.733   155301993.789          48.000  
C13  38882165.404   202469863.792          42.000    38882187.311   156562744.282          42.000    38882182.201   164523508.185          42.000  
C24  24796736.009   129123144.720          43.000                                                    24796741.780   104923160.027          45.000  
C26  22250647.686   115865049.048          50.000                                                    22250653.458    94149907.994          52.000  
C29  24292161.510   126495863.060          45.000                                                    24292166.031   102788359.940          45.000  
C35  21817092.190   113607657.260          51.000                                                    21817096.746    92315694.731          52.000  
C38  37207991.286   193752119.196          47.000                                                    37207997.719   157439637.020          49.000  
C40  36287152.751   188956825.553          49.000                                                    36287156.450   153542969.699          51.000  
C44  23963871.159   124786395.656          46.000                                                    23963878.699   101399277.861          46.000  
C45  23508517.080   122414990.687          47.000                                                    23508521.297    99472217.725          49.000  
G01  20257378.509   106453669.550          48.000    20257383.155    82951099.272          57.000    20257383.173    79494893.372          52.000  
G03  22384581.910   117632100.739          43.000    22384593.293    91661560.467          47.000    22384596.062    87842407.295          48.000  
G07  22742917.147   119514694.730          42.000    22742933.426    93128309.798          43.000                                                  
G08  24119879.451   126750932.727          38.000    24119888.296    98767058.590          25.000    24119889.118    94651804.020          41.000  
G14  20916121.524   109915083.140          46.000    20916124.026    85648170.948          43.000    20916129.118    82079541.028          52.000  
G17  22265131.494   117004255.483          45.000    22265134.407    91172255.310          50.000                                                  
G21  22568458.499   118598418.093          44.000    22568460.321    92414523.824          35.000                                                  
G30  22077377.006   116017440.089          45.000    22077384.672    90403243.820          50.000    22077387.370    86636459.229          48.000  
E02  24625804.080   129409548.657          46.000    24625807.797    99158074.831          50.000    24625811.245    96637117.115          48.000  
E10  26473023.424   139116951.605          40.000    26473028.660   106596281.356          45.000    26473031.823   103886237.155          43.000  
E11  23972757.048   125978059.346          43.000    23972757.031    96528844.271          47.000    23972760.319    94074757.895          45.000  
E24  26838755.204   141038441.592          40.000    26838774.913   108068408.651          45.000    26838779.934   105320915.611          42.000  
E25  23502083.642   123504357.072          48.000    23502087.770    94633264.974          53.000    23502091.040    92227353.400          51.000  
E34  26933428.986   141536266.855          38.000    26933447.177   108450014.374          44.000    26933450.858   105692836.680          40.000  
E36  23521972.669   123609234.861          48.000    23521978.029    94713819.486          53.000    23521981.317    92305880.714          51.000  
> 2023 02 16 09 21 07.0000000  0 37                     
R11  20367490.377          52.000    20367500.902          52.000  
R12  19618848.219          53.000    19618857.117          53.000  
R13  22894108.291          35.000    22894118.440          38.000  
R21  21802134.138          49.000    21802144.055          48.000  
R22  19772166.741          53.000    19772173.638          54.000  
C01  37110561.225   193244404.842          45.000    37110567.372   149428701.907          47.000    37110568.247   157027059.916          45.000  
C02  38347293.887   199684380.953          40.000    38347297.693   154408474.352          45.000    38347299.462   162259918.350          43.000  
C03  36932702.780   192318263.921          45.000    36932707.069   148712547.551          48.000    36932707.676   156274246.103          46.000  
C04  38127528.295   198540016.110          41.000    38127533.960   153523704.052          45.000    38127533.745   161329990.573          43.000  
C07  36078189.627   187868650.376          47.000    36078188.108   145271987.737          50.000    36078186.911   152658683.603          49.000  
C08  38130213.974   198554308.880          41.000    38130222.587   153534973.046          45.000    38130219.406   161341783.708          43.000  
C09  38940886.712   202775343.005          38.000    38940904.081   156798801.308          42.000    38940896.522   164771599.611          38.000  
C10  36702780.203   191121093.858          45.000    36702782.741   147787005.633          49.000    36702781.008   155301580.367          48.000  
C13  38881881.590   202468385.830          41.000    38881903.551   156561601.441          42.000    38881898.334   164522307.227          42.000  
C24  24796290.141   129120823.501          43.000                                                    24796295.984   104921273.849          45.000  
C26  22250671.416   115865172.855          50.000                                                    22250677.224    94150008.600          52.000  
C29  24292568.548   126497982.907          45.000                                                    24292573.140   102790082.492          45.000  
C35  21817175.977   113608093.772          51.000                                                    21817180.552    92316049.437          52.000  
C38  37207740.369   193750812.728          47.000                                                    37207746.838   157438575.413          49.000  
C40  36287079.703   188956445.158          48.000                                                    36287083.401   153542660.602          51.000  
C44  23963561.828   124784785.320          45.000                                                    23963569.422   101397969.341          46.000  
C45  23509062.371   122417830.210          47.000                                                    23509066.624    99474525.056          49.000  
G01  20257688.841   106455300.208          48.000    20257693.451    82952369.912          57.000    20257693.469    79496111.065          52.000  
G03  22384101.519   117629575.992          43.000    22384112.830    91659593.145          47.000    22384115.618    87840521.941          48.000  
G07  22743504.359   119517780.364          42.000    22743520.655    93130714.156          43.000                                                  
G08  24120305.824   126753173.942          38.000    24120314.758    98768804.993          25.000    24120315.616    94653477.641          41.000  
G14  20915755.852   109913161.678          46.000    20915758.390    85646673.711          43.000    20915763.447    82078106.177          52.000  
G17  22264885.241   117002961.309          45.000    22264888.154    91171246.868          50.000                                                  
G21  22569026.162   118601401.993          44.000    22569028.127    92416848.941          35.000                                                  
G30  22077688.177   116019075.595          45.000    22077695.897    90404518.236          49.000    22077698.595    86637680.544          48.000  
E02  24625440.874   129407639.843          46.000    24625444.537    99156612.237          50.000    24625447.986    96635691.704          48.000  
E10  26473499.562   139119453.982          40.000    26473504.780   106598198.760          45.000    26473507.979   103888105.813          43.000  
E11  23973088.019   125979798.596          43.000    23973088.019    96530176.941          47.000    23973091.253    94076056.695          45.000  
E24  26839224.248   141040906.367          40.000    26839243.922   108070297.218          45.000    26839248.978   105322756.150          42.000  
E25  23502167.108   123504795.667          48.000    23502171.254    94633601.043          53.000    23502174.488    92227680.922          51.000  
E34  26932971.754   141533866.411          38.000    26932990.480   108448175.095          44.000    26932994.054   105691044.174          40.000  
E36  23521859.397   123608639.611          48.000    23521864.758    94713363.395          53.000    23521868.010    92305436.218          50.000  
> 2023 02 16 09 21 08.0000000  0 37                     
R11  20368067.100          52.000    20368077.464          52.000  
R12  19618594.532          53.000    19618603.467          53.000  
R13  22893368.370          35.000    22893378.538          38.000  
R21  21802675.462          49.000    21802685.558          48.000  
R22  19772334.585          53.000    19772341.446          54.000  
C01  37110553.291   193244363.566          44.000    37110559.402   149428669.997          47.000    37110560.313   157027026.367          45.000  
C02  38347290.510   199684363.332          40.000    38347294.316   154408460.719          45.000    38347296.067   162259904.032          43.000  
C03  36932693.792   192318216.736          45.000    36932698.009   148712511.066          48.000    36932698.635   156274207.762          46.000  
C04  38127523.453   198539990.609          41.000    38127528.939   153523684.333          45.000    38127528.903   161329969.853          43.000  
C07  36078122.136   187868298.707          47.000    36078120.527   145271715.811          50.000    36078119.384   152658397.844          49.000  
C08  38129912.184   198552737.468          41.000    38129920.779   153533757.937          45.000    38129917.580   161340506.826          43.000  
C09  38941239.322   202777176.599          38.000    38941256.172   156800219.148          42.000    38941248.578   164773089.562          39.000  
C10  36702682.513   191120584.766          45.000    36702684.979   147786611.973          49.000    36702683.282   155301166.690          48.000  
C13  38881597.705   202466907.670          42.000    38881619.791   156560458.444          42.000    38881614.502   164521106.118          42.000  
C24  24795844.434   129118502.370          43.000                                                    24795850.259   104919387.744          45.000  
C26  22250695.236   115865296.941          50.000                                                    22250701.043    94150109.426          52.000  
C29  24292975.515   126500102.489          45.000                                                    24292980.179   102791804.819          45.000  
C35  21817259.712   113608530.211          51.000                                                    21817264.375    92316404.079          52.000  
C38  37207489.453   193749506.127          47.000                                                    37207495.903   157437513.694          49.000  
C40  36287006.636   188956064.476          49.000                                                    36287010.264   153542351.264          51.000  
C44  23963252.605   124783174.921          45.000                                                    23963260.127   101396660.761          46.000  
C45  23509607.716   122420669.739          47.000                                                    23509611.987    99476832.392          49.000  
G01  20257999.226   106456931.128          48.000    20258003.800    82953640.761          57.000    20258003.836    79497328.961          53.000  
G03  22383621.021   117627051.366          42.000    22383632.386    91657625.915          47.000    22383635.209    87838636.681          48.000  
G07  22744091.589   119520865.907          41.000    22744107.849    93133118.443          43.000                                                  
G08  24120732.179   126755414.956          38.000    24120741.221    98770551.236          25.000    24120742.168    94655151.124          41.000  
G14  20915390.306   109911240.342          46.000    20915392.772    85645176.566          43.000    20915397.829    82076671.410          52.000  
G17  22264638.935   117001666.959          45.000    22264641.883    91170238.286          50.000                                                  
G21  22569593.896   118604385.755          43.000    22569595.916    92419173.947          35.000                                                  
G30  22077999.366   116020711.329          45.000    22078007.175    90405792.830          49.000    22078009.855    86638902.026          48.000  
E02  24625077.650   129405730.969          46.000    24625081.296    99155149.603          50.000    24625084.727    96634266.253          48.000  
E10  26473975.664   139121956.151          41.000    26473980.918   106600116.004          45.000    26473984.152   103889974.312          43.000  
E11  23973419.060   125981537.800          43.000    23973418.989    96531509.584          47.000    23973422.205    94077355.453          45.000  
E24  26839693.220   141043371.089          40.000    26839712.948   108072185.756          45.000    26839717.987   105324596.664          42.000  
E25  23502250.592   123505234.379          48.000    23502254.720    94633937.198          53.000    23502257.990    92228008.531          51.000  
E34  26932514.503   141531465.927          38.000    26932533.713   108446335.786          44.000    26932537.251   105689251.617          40.000  
E36  23521746.125   123608044.455          48.000    23521751.504    94712907.368          53.000    23521754.774    92304991.785          51.000  
> 2023 02 16 09 21 09.0000000  0 37                     
R11  20368643.501          51.000    20368654.008          52.000  
R12  19618341.006          53.000    19618349.887          53.000  
R13  22892628.324          35.000    22892638.796          38.000  
R21  21803216.840          49.000    21803226.936          48.000  
R22  19772502.321          53.000    19772509.254          54.000  
C01  37110545.268   193244321.738          44.000    37110551.433   149428637.653          47.000    37110552.255   157026992.392          45.000  
C02  38347287.008   199684345.158          40.000    38347290.832   154408446.675          45.000    38347292.583   162259889.269          43.000  
C03  36932684.697   192318169.005          44.000    36932688.842   148712474.164          48.000    36932689.414   156274168.976          46.000  
C04  38127518.414   198539964.555          41.000    38127523.918   153523664.191          45.000    38127523.900   161329948.678          43.000  
C07  36078054.466   187867946.477          47.000    36078052.875   145271443.440          50.000    36078051.749   152658111.626          49.000  
C08  38129610.180   198551165.634          41.000    38129618.900   153532542.502          45.000    38129615.683   161339229.587          43.000  
C09  38941591.574   202779009.649          38.000    38941608.424   156801636.559          42.000    38941600.598   164774579.042          38.000  
C10  36702584.645   191120075.118          45.000    36702587.057   147786217.871          49.000    36702585.395   155300752.559          48.000  
C13  38881313.784   202465429.054          42.000    38881335.906   156559315.104          42.000    38881330.545   164519904.637          42.000  
C24  24795398.727   129116181.055          43.000                                                    24795404.516   104917501.488          45.000  
C26  22250719.091   115865421.039          50.000                                                    22250724.863    94150210.265          52.000  
C29  24293382.268   126502221.528          45.000                                                    24293387.092   102793526.712          45.000  
C35  21817343.428   113608966.281          51.000                                                    21817348.110    92316758.422          52.000  
C38  37207238.518   193748199.118          47.000                                                    37207244.897   157436451.648          49.000  
C40  36286933.427   188955683.226          48.000                                                    36286937.036   153542041.470          51.000  
C44  23962943.327   124781564.155          45.000                                                    23962950.797   101395351.885          46.000  
C45  23510152.989   122423508.989          47.000                                                    23510157.278    99479139.503          49.000  
G01  20258309.628   106458562.030          48.000    20258314.149    82954911.591          57.000    20258314.203    79498546.842          53.000  
G03  22383140.595   117624526.543          42.000    22383151.924    91655658.535          47.000    22383154.729    87836751.284          48.000  
G07  22744678.622   119523951.095          41.000    22744694.990    93135522.452          43.000                                                  
G08  24121158.945   126757655.408          38.000    24121167.629    98772297.040          25.000    24121168.612    94656824.188          42.000  
G14  20915024.652   109909318.836          46.000    20915027.118    85643679.289          43.000    20915032.175    82075236.517          52.000  
G17  22264392.628   117000372.152          45.000    22264395.505    91169229.347          50.000                                                  
G21  22570161.631   118607369.082          43.000    22570163.614    92421498.616          35.000                                                  
G30  22078310.520   116022347.003          45.000    22078318.436    90407067.374          49.000    22078321.116    86640123.464          48.000  
E02  24624714.320   129403821.773          46.000    24624717.983    99153686.706          50.000    24624721.449    96632840.552          48.000  
E10  26474451.731   139124457.818          40.000    26474456.931   106602032.863          45.000    26474460.183   103891842.433          43.000  
E11  23973749.959   125983276.675          43.000    23973749.834    96532841.967          47.000    23973753.104    94078653.961          45.000  
E24  26840162.175   141045835.483          40.000    26840181.902   108074074.008          45.000    26840186.941   105326436.918          42.000  
E25  23502334.005   123505672.917          48.000    23502338.168    94634273.215          53.000    23502341.456    92228336.009          51.000  
E34  26932057.271   141529065.087          38.000    26932076.873   108444496.199          44.000    26932080.358   105687458.802          40.000  
E36  23521632.836   123607449.117          48.000    23521638.214    94712451.196          53.000    23521641.466    92304547.215          50.000  
> 2023 02 16 09 21 10.0000000  0 37                     
R11  20369220.152          51.000    20369230.713          52.000  
R12  19618087.659          53.000    19618096.487          53.000  
R13  22891888.690          35.000    22891899.215          38.000  
R21  21803758.664          49.000    21803768.349          48.000  
R22  19772670.183          53.000    19772677.223          54.000  
C01  37110537.227   193244280.238          45.000    37110543.517   149428605.558          47.000    37110544.303   157026958.658          45.000  
C02  38347283.434   199684327.310          40.000    38347287.401   154408432.874          45.000    38347289.116   162259874.762          43.000  
C03  36932675.691   192318121.600          45.000    36932679.694   148712437.500          48.000    36932680.283   156274130.458          46.000  
C04  38127513.518   198539938.833          41.000    38127518.914   153523644.299          45.000    38127518.914   161329927.777          43.000  
C07  36077986.939   187867594.549          47.000    36077985.295   145271171.312          50.000    36077984.169   152657825.658          49.000  
C08  38129308.390   198549594.202          41.000    38129317.110   153531327.389          45.000    38129313.911   161337952.679          43.000  
C09  38941943.969   202780843.008          38.000    38941960.462   156803054.223          42.000    38941952.814   164776068.789          38.000  
C10  36702486.866   191119565.766          45.000    36702489.260   147785824.018          49.000    36702487.580   155300338.674          48.000  
C13  38881029.881   202463950.853          41.000    38881052.092   156558172.077          42.000    38881046.678   164518703.478          42.000  
C24  24794953.109   129113860.409          43.000                                                    24794958.845   104915615.771          45.000  
C26  22250743.071   115865546.000          50.000                                                    22250748.843    94150311.804          52.000  
C29  24293789.128   126504340.878          44.000                                                    24293794.077   102795248.859          45.000  
C35  21817427.198   113609402.848          51.000                                                    21817431.915    92317113.168          52.000  
C38  37206987.583   193746892.569          47.000                                                    37206994.016   157435389.972          49.000  
C40  36286860.253   188955302.262          49.000                                                    36286863.863   153541731.903          51.000  
C44  23962634.104   124779953.895          45.000                                                    23962641.555   101394043.417          46.000  
C45  23510698.334   122426348.832          47.000                                                    23510702.658    99481447.089          49.000  
G01  20258620.138   106460193.771          48.000    20258624.641    82956183.078          57.000    20258624.695    79499765.355          53.000  
G03  22382660.275   117622002.430          42.000    22382671.587    91653691.703          47.000    22382674.374    87834866.414          48.000  
G07  22745265.691   119527036.776          41.000    22745282.237    93137926.847          43.000                                                  
G08  24121585.496   126759896.229          38.000    24121594.073    98774043.135          25.000    24121595.074    94658497.511          41.000  
G14  20914659.034   109907398.034          46.000    20914661.589    85642182.560          43.000    20914666.646    82073802.157          52.000  
G17  22264146.357   116999077.749          45.000    22264149.216    91168220.724          50.000                                                  
G21  22570729.455   118610352.856          44.000    22570731.403    92423823.632          35.000                                                  
G30  22078621.959   116023983.492          45.000    22078629.839    90408342.553          49.000    22078632.519    86641345.513          48.000  
E02  24624351.114   129401913.099          46.000    24624354.777    99152224.222          50.000    24624358.226    96631415.253          48.000  
E10  26474927.797   139126959.852          41.000    26474933.087   106603950.018          45.000    26474936.339   103893710.842          43.000  
E11  23974080.911   125985016.075          43.000    23974080.804    96534174.756          47.000    23974084.091    94079952.866          45.000  
E24  26840631.040   141048300.396          40.000    26840651.000   108075962.676          45.000    26840656.021   105328277.561          42.000  
E25  23502417.560   123506112.160          48.000    23502421.742    94634609.780          53.000    23502425.030    92228664.018          51.000  
E34  26931600.288   141526664.785          38.000    26931620.159   108442657.022          44.000    26931623.661   105685666.379          40.000  
E36  23521519.671   123606854.445          48.000    23521525.050    94711995.545          53.000    23521528.284    92304103.150          51.000  
> 2023 02 16 09 21 11.0000000  0 37                     
R11  20369796.893          51.000    20369807.668          52.000  
R12  19617834.527          53.000    19617843.336          53.000  
R13  22891149.163          35.000    22891159.598          38.000  
R21  21804300.417          50.000    21804309.852          48.000  
R22  19772838.241          53.000    19772845.353          54.000  
C01  37110529.418   193244239.181          44.000    37110535.708   149428573.814          47.000    37110536.440   157026925.291          45.000  
C02  38347280.253   199684309.895          40.000    38347284.059   154408419.395          45.000    38347285.811   162259860.608          43.000  
C03  36932666.774   192318074.637          45.000    36932670.652   148712401.185          48.000    36932671.277   156274092.287          46.000  
C04  38127508.443   198539913.547          41.000    38127514.072   153523624.739          45.000    38127514.090   161329907.230          43.000  
C07  36077919.358   187867243.075          47.000    36077917.803   145270899.528          50.000    36077916.678   152657540.052          49.000  
C08  38129006.743   198548023.337          41.000    38129015.356   153530112.692          45.000    38129012.264   161336676.217          43.000  
C09  38942296.435   202782676.797          38.000    38942312.464   156804472.203          42.000    38942304.977   164777558.874          38.000  
C10  36702389.122   191119056.845          45.000    36702391.499   147785430.485          49.000    36702389.837   155299925.125          48.000  
C13  38880746.264   202462473.164          42.000    38880768.243   156557029.447          42.000    38880762.847   164517502.745          42.000  
C24  24794507.563   129111540.542          43.000                                                    24794513.352   104913730.691          45.000  
C26  22250767.230   115865671.945          49.000                                                    22250773.037    94150414.142          52.000  
C29  24294196.112   126506460.663          44.000                                                    24294201.169   102796971.356          45.000  
C35  21817511.165   113609840.037          51.000                                                    21817515.864    92317468.420          52.000  
C38  37206736.792   193745586.593          47.000                                                    37206743.189   157434328.764          49.000  
C40  36286787.187   188954921.713          48.000                                                    36286790.778   153541422.673          51.000  
C44  23962324.988   124778344.251          45.000                                                    23962332.457   101392735.456          46.000  
C45  23511243.821   122429189.376          46.000                                                    23511248.199    99483755.250          49.000  
G01  20258930.863   106461826.489          48.000    20258935.330    82957455.328          57.000    20258935.402    79500984.595          52.000  
G03  22382180.045   117619479.125          42.000    22382191.392    91651725.506          47.000    22382194.162    87832982.140          48.000  
G07  22745852.956   119530123.085          41.000    22745869.592    93140331.731          43.000                                                  
G08  24122012.048   126762137.493          38.000    24122020.660    98775789.574          25.000    24122021.625    94660171.189          42.000  
G14  20914293.666   109905478.063          46.000    20914296.239    85640686.481          43.000    20914301.296    82072368.414          52.000  
G17  22263900.122   116997783.889          45.000    22263903.017    91167212.528          50.000                                                  
G21  22571297.315   118613337.201          44.000    22571299.298    92426149.096          35.000                                                  
G30  22078933.523   116025620.917          45.000    22078941.439    90409618.465          49.000    22078944.137    86642568.261          48.000  
E02  24623988.051   129400005.089          46.000    24623991.696    99150762.242          50.000    24623995.163    96629990.435          48.000  
E10  26475404.043   139129462.382          40.000    26475409.314   106605867.534          45.000    26475412.495   103895579.607          43.000  
E11  23974412.006   125986756.135          43.000    23974411.952    96535508.040          47.000    23974415.187    94081252.257          45.000  
E24  26841100.138   141050765.938          39.000    26841120.223   108077851.828          45.000    26841125.226   105330118.681          42.000  
E25  23502501.259   123506552.222          48.000    23502505.494    94634946.970          53.000    23502508.746    92228992.633          51.000  
E34  26931143.717   141524265.131          38.000    26931163.498   108440818.342          44.000    26931167.036   105683874.452          40.000  
E36  23521406.685   123606260.589          48.000    23521412.028    94711540.512          53.000    23521415.316    92303659.686          51.000  
> 2023 02 16 09 21 12.0000000  0 37                     
R11  20370373.741          51.000    20370384.677          52.000  
R12  19617581.537          53.000    19617590.347          53.000  
R13  22890409.778          36.000    22890420.053          38.000  
R21  21804842.206          50.000    21804851.391          47.000  
R22  19773006.442          53.000    19773013.554          54.000  
C01  37110521.538   193244198.018          44.000    37110527.756   149428541.987          47.000    37110528.507   157026891.841          45.000  
C02  38347277.019   199684292.367          40.000    38347280.736   154408405.850          45.000    38347282.469   162259846.363          43.000  
C03  36932657.679   192318027.566          44.000    36932661.628   148712364.789          48.000    36932662.235   156274054.043          46.000  
C04  38127503.475   198539888.148          41.000    38127509.229   153523605.104          45.000    38127509.193   161329886.593          43.000  
C07  36077851.795   187866891.476          46.000    36077850.312   145270627.645          50.000    36077849.150   152657254.349          49.000  
C08  38128704.935   198546452.451          40.000    38128713.691   153528898.001          45.000    38128710.581   161335399.756          43.000  
C09  38942648.544   202784510.473          38.000    38942664.430   156805890.099          42.000    38942657.193   164779048.867          38.000  
C10  36702291.307   191118547.778          45.000    36702293.755   147785036.845          48.000    36702292.057   155299511.471          48.000  
C13  38880462.504   202460995.452          41.000    38880484.429   156555886.805          42.000    38880479.033   164516301.994          42.000  
C24  24794062.195   129109220.931          43.000                                                    24794067.860   104911845.818          45.000  
C26  22250791.460   115865798.331          49.000                                                    22250797.286    94150516.839          52.000  
C29  24294603.044   126508580.339          44.000                                                    24294608.244   102798693.762          45.000  
C35  21817595.131   113610277.305          50.000                                                    21817599.831    92317823.734          52.000  
C38  37206485.946   193744280.646          47.000                                                    37206492.379   157433267.570          49.000  
C40  36286713.995   188954541.022          48.000                                                    36286717.676   153541113.328          51.000  
C44  23962015.764   124776734.686          45.000                                                    23962023.377   101391427.553          47.000  
C45  23511789.220   122432030.080          46.000                                                    23511793.758    99486063.538          49.000  
G01  20259241.659   106463459.633          48.000    20259246.108    82958727.906          57.000    20259246.180    79502204.141          52.000  
G03  22381699.958   117616956.100          42.000    22381711.252    91649759.525          47.000    22381714.021    87831098.064          47.000  
G07  22746440.400   119533209.465          41.000    22746456.965    93142736.668          43.000                                                  
G08  24122438.313   126764378.640          37.000    24122447.194    98777535.918          25.000    24122448.159    94661844.762          41.000  
G14  20913928.370   109903558.370          46.000    20913930.925    85639190.616          43.000    20913935.964    82070934.871          51.000  
G17  22263653.833   116996490.006          45.000    22263656.817    91166204.307          50.000                                                  
G21  22571865.389   118616321.547          44.000    22571867.193    92428474.558          35.000                                                  
G30  22079245.177   116027258.706          45.000    22079253.093    90410894.659          49.000    22079255.809    86643791.274          48.000  
E02  24623624.953   129398097.172          45.000    24623628.634    99149300.330          50.000    24623632.064    96628565.692          48.000  
E10  26475880.199   139131964.838          40.000    26475885.506   106607784.994          45.000    26475888.740   103897448.325          43.000  
E11  23974743.065   125988496.289          43.000    23974743.101    96536841.410          47.000    23974746.335    94082551.721          45.000  
E24  26841569.200   141053231.593          39.000    26841589.356   108079741.067          45.000    26841594.395   105331959.880          42.000  
E25  23502585.029   123506992.548          48.000    23502589.282    94635284.358          53.000    23502592.516    92229321.441          51.000  
E34  26930687.146   141521865.574          38.000    26930706.927   108438979.722          44.000    26930710.393   105682082.579          40.000  
E36  23521293.699   123605666.970          48.000    23521299.060    94711085.664          53.000    23521302.348    92303216.398          50.000  
> 2023 02 16 09 21 13.0000000  0 37                     
R11  20370950.803          51.000    20370961.775          52.000  
R12  19617328.708          53.000    19617337.464          53.000  
R13  22889670.626          36.000    22889680.490          38.000  
R21  21805383.798          50.000    21805392.894          48.000  
R22  19773174.607          53.000    19773181.755          54.000  
C01  37110513.515   193244156.632          44.000    37110519.804   149428509.987          47.000    37110520.537   157026858.220          45.000  
C02  38347273.499   199684274.639          40.000    38347277.323   154408392.141          45.000    38347279.020   162259831.957          43.000  
C03  36932648.601   192317980.271          45.000    36932652.568   148712328.224          48.000    36932653.158   156274015.616          46.000  
C04  38127498.597   198539862.545          41.000    38127504.351   153523585.299          45.000    38127504.279   161329865.779          43.000  
C07  36077784.161   187866539.659          46.000    36077782.785   145270355.602          50.000    36077781.588   152656968.478          49.000  
C08  38128403.199   198544881.507          40.000    38128412.044   153527683.252          45.000    38128408.899   161334123.240          44.000  
C09  38943000.761   202786343.933          38.000    38943016.486   156807307.838          42.000    38943009.338   164780538.692          38.000  
C10  36702193.528   191118038.468          45.000    36702195.994   147784643.018          49.000    36702194.242   155299097.619          48.000  
C13  38880178.851   202459517.621          41.000    38880200.651   156554744.058          42.000    38880195.201   164515101.147          42.000  
C24  24793616.756   129106901.451          43.000                                                    24793622.421   104909961.052          45.000  
C26  22250815.709   115865925.046          49.000                                                    22250821.623    94150619.810          52.000  
C29  24295009.850   126510699.790          44.000                                                    24295015.282   102800415.987          45.000  
C35  21817679.098   113610714.526          51.000                                                    21817683.779    92318179.022          52.000  
C38  37206235.047   193742974.620          47.000                                                    37206241.569   157432206.327          49.000  
C40  36286640.893   188954160.086          48.000                                                    36286644.538   153540803.794          51.000  
C44  23961706.612   124775125.089          45.000                                                    23961714.260   101390119.633          47.000  
C45  23512334.743   122434870.836          47.000                                                    23512339.318    99488371.878          49.000  
G01  20259552.437   106465093.082          48.000    20259556.922    82960000.723          57.000    20259557.029    79503423.929          52.000  
G03  22381219.853   117614433.223          43.000    22381231.165    91647793.658          47.000    22381233.899    87829214.119          47.000  
G07  22747027.809   119536295.797          41.000    22747044.302    93145141.570          43.000                                                  
G08  24122864.471   126766619.593          37.000    24122873.620    98779282.108          25.000    24122874.693    94663518.207          41.000  
G14  20913563.145   109901638.833          46.000    20913565.664    85637694.875          43.000    20913570.668    82069501.454          51.000  
G17  22263407.545   116995195.981          45.000    22263410.600    91165195.979          50.000                                                  
G21  22572433.427   118619305.796          44.000    22572435.089    92430799.945          35.000                                                  
G30  22079556.920   116028896.774          45.000    22079564.800    90412171.071          49.000    22079567.516    86645014.496          48.000  
E02  24623261.836   129396189.249          46.000    24623265.553    99147838.422          50.000    24623269.002    96627140.954          48.000  
E10  26476356.229   139134467.137          40.000    26476361.715   106609702.341          45.000    26476364.914   103899316.926          43.000  
E11  23975074.303   125990236.429          43.000    23975074.268    96538174.759          47.000    23975077.484    94083851.174          45.000  
E24  26842038.351   141055697.258          39.000    26842058.489   108081630.298          45.000    26842063.671   105333801.075          42.000  
E25  23502668.853   123507433.032          48.000    23502673.105    94635621.874          53.000    23502676.358    92229650.378          51.000  
E34  26930230.789   141519465.993          38.000    26930250.266   108437141.105          44.000    26930253.768   105680290.702          40.000  
E36  23521180.821   123605073.493          48.000    23521186.128    94710630.924          53.000    23521189.398    92302773.219          50.000  
> 2023 02 16 09 21 14.0000000  0 37                     
R11  20371528.044          51.000    20371539.015          52.000  
R12  19617076.058          53.000    19617084.725          53.000  
R13  22888930.670          36.000    22888940.766          38.000  
R21  21805925.390          49.000    21805934.379          47.000  
R22  19773342.808          53.000    19773350.045          54.000  
C01  37110505.563   193244115.295          44.000    37110511.871   149428478.018          47.000    37110512.603   157026824.626          45.000  
C02  38347270.032   199684256.948          40.000    38347273.856   154408378.463          45.000    38347275.607   162259817.593          43.000  
C03  36932639.542   192317933.025          45.000    36932643.437   148712291.693          48.000    36932644.098   156273977.223          46.000  
C04  38127493.755   198539836.982          41.000    38127499.419   153523565.542          45.000    38127499.365   161329845.012          43.000  
C07  36077716.562   187866187.894          47.000    36077715.169   145270083.600          50.000    36077714.025   152656682.633          49.000  
C08  38128101.498   198543310.691          40.000    38128110.415   153526468.602          45.000    38128107.216   161332846.833          43.000  
C09  38943352.923   202788177.426          38.000    38943368.434   156808725.593          42.000    38943361.429   164782028.540          38.000  
C10  36702095.677   191117529.180          45.000    36702098.161   147784249.205          49.000    36702096.445   155298683.784          48.000  
C13  38879895.091   202458039.909          42.000    38879916.784   156553601.413          42.000    38879911.405   164513900.401          42.000  
C24  24793171.353   129104582.376          43.000                                                    24793177.053   104908076.618          45.000  
C26  22250840.118   115866052.354          49.000                                                    22250846.104    94150723.256          52.000  
C29  24295416.853   126512819.285          44.000                                                    24295422.303   102802138.253          45.000  
C35  21817763.118   113611151.992          51.000                                                    21817767.782    92318534.496          52.000  
C38  37205984.345   193741668.778          47.000                                                    37205990.778   157431145.225          49.000  
C40  36286567.737   188953779.174          48.000                                                    36286571.382   153540494.269          51.000  
C44  23961397.460   124773515.725          45.000                                                    23961405.216   101388811.897          47.000  
C45  23512880.410   122437711.912          47.000                                                    23512884.913    99490680.468          49.000  
G01  20259863.376   106466727.112          48.000    20259867.861    82961273.995          57.000    20259868.004    79504644.144          52.000  
G03  22380739.802   117611910.765          43.000    22380751.131    91645828.120          47.000    22380753.883    87827330.487          47.000  
G07  22747615.288   119539382.364          42.000    22747631.710    93147546.653          43.000                                                  
G08  24123290.648   126768860.631          37.000    24123300.029    98781028.367          24.000    24123301.208    94665191.679          41.000  
G14  20913197.866   109899719.733          46.000    20913200.475    85636199.473          43.000    20913205.478    82068068.365          51.000  
G17  22263161.274   116993902.104          45.000    22263164.401    91164187.767          50.000                                                  
G21  22573001.573   118622290.236          44.000    22573002.984    92433125.480          35.000                                                  
G30  22079868.752   116030535.379          45.000    22079876.632    90413447.899          49.000    22079879.331    86646238.125          48.000  
E02  24622898.755   129394281.594          45.000    24622902.544    99146376.712          50.000    24622905.992    96625716.410          48.000  
E10  26476832.367   139136969.526          40.000    26476837.907   106611619.758          45.000    26476841.087   103901185.593          43.000  
E11  23975405.488   125991976.812          43.000    23975405.434    96539508.308          47.000    23975408.669    94085150.821          45.000  
E24  26842507.573   141058163.151          39.000    26842527.676   108083519.722          45.000    26842532.912   105335642.456          42.000  
E25  23502752.801   123507873.941          48.000    23502756.983    94635959.720          53.000    23502760.253    92229979.631          51.000  
E34  26929774.610   141517066.659          38.000    26929793.587   108435302.681          44.000    26929797.161   105678499.020          40.000  
E36  23521067.996   123604480.417          48.000    23521073.267    94710176.494          53.000    23521076.573    92302330.346          51.000  
> 2023 02 16 09 21 15.0000000  0 37                     
R11  20372105.767          51.000    20372116.667          52.000  
R12  19616823.766          53.000    19616832.414          53.000  
R13  22888191.803          36.000    22888201.453          39.000  
R21  21806467.233          50.000    21806476.221          47.000  
R22  19773511.438          53.000    19773518.729          54.000  
C01  37110497.879   193244075.511          44.000    37110504.223   149428447.252          47.000    37110504.973   157026792.286          45.000  
C02  38347266.834   199684240.810          40.000    38347270.747   154408365.989          45.000    38347272.534   162259804.482          43.000  
C03  36932630.750   192317887.335          45.000    36932634.753   148712256.352          48.000    36932635.307   156273940.101          46.000  
C04  38127489.109   198539812.976          41.000    38127494.845   153523546.969          45.000    38127494.755   161329825.505          43.000  
C07  36077649.285   187865837.668          47.000    36077647.963   145269812.775          50.000    36077646.748   152656398.048          49.000  
C08  38127800.048   198541741.538          40.000    38127809.125   153525255.247          45.000    38127805.855   161331571.774          43.000  
C09  38943705.265   202790012.457          38.000    38943720.632   156810144.528          42.000    38943713.878   164783519.629          38.000  
C10  36701998.166   191117021.396          45.000    36702000.649   147783856.545          48.000    36701998.952   155298271.158          48.000  
C13  38879611.796   202456563.813          42.000    38879633.346   156552460.014          42.000    38879627.878   164512700.955          42.000  
C24  24792726.307   129102265.204          43.000                                                    24792732.061   104906193.724          45.000  
C26  22250864.974   115866181.767          49.000                                                    22250870.960    94150828.412          52.000  
C29  24295824.177   126514940.336          44.000                                                    24295829.627   102803861.780          45.000  
C35  21817847.442   113611591.176          50.000                                                    21817852.106    92318891.369          52.000  
C38  37205733.946   193740364.625          47.000                                                    37205740.343   157430085.499          49.000  
C40  36286494.814   188953399.782          48.000                                                    36286498.513   153540185.980          51.000  
C44  23961088.702   124771908.102          45.000                                                    23961096.475   101387505.570          47.000  
C45  23513426.415   122440554.803          46.000                                                    23513430.883    99492990.535          49.000  
G01  20260174.672   106468363.240          48.000    20260179.211    82962548.898          57.000    20260179.354    79505865.928          52.000  
G03  22380260.126   117609390.253          42.000    22380271.473    91643864.096          47.000    22380274.225    87825448.289          47.000  
G07  22748202.876   119542470.678          41.000    22748219.440    93149953.099          43.000                                                  
G08  24123717.003   126771103.257          37.000    24123726.813    98782775.866          24.000    24123727.956    94666866.367          41.000  
G14  20912833.052   109897802.581          46.000    20912835.643    85634705.588          43.000    20912840.682    82066636.726          52.000  
G17  22262915.414   116992609.884          45.000    22262918.505    91163180.845          50.000                                                  
G21  22573569.897   118625276.351          44.000    22573571.201    92435452.321          35.000                                                  
G30  22080180.906   116032176.032          45.000    22080188.840    90414726.323          49.000    22080191.556    86647463.277          48.000  
E02  24622535.996   129392375.719          45.000    24622539.874    99144916.369          50.000    24622543.287    96624293.190          48.000  
E10  26477308.791   139139473.529          40.000    26477314.402   106613538.408          45.000    26477317.601   103903055.466          43.000  
E11  23975737.030   125993718.997          43.000    23975736.958    96540843.223          47.000    23975740.175    94086451.802          45.000  
E24  26842977.243   141060630.820          39.000    26842997.310   108085410.501          45.000    26843002.456   105337485.156          42.000  
E25  23502837.072   123508316.802          48.000    23502841.271    94636299.049          53.000    23502844.559    92230310.335          51.000  
E34  26929318.897   141514669.118          38.000    26929337.373   108433465.602          44.000    26929340.893   105676708.659          40.000  
E36  23520955.439   123603889.273          48.000    23520960.782    94709723.537          53.000    23520964.070    92301888.905          50.000  
> 2023 02 16 09 21 16.0000000  0 37                     
R11  20372683.651          51.000    20372694.605          52.000  
R12  19616571.830          53.000    19616580.425          53.000  
R13  22887453.080          36.000    22887462.551          39.000  
R21  21807009.325          50.000    21807018.206          47.000  
R22  19773680.336          53.000    19773687.627          54.000  
C01  37110490.463   193244036.457          44.000    37110496.628   149428417.055          47.000    37110497.468   157026760.559          45.000  
C02  38347263.903   199684225.413          40.000    38347267.745   154408354.079          45.000    38347269.532   162259791.969          43.000  
C03  36932622.084   192317842.381          45.000    36932626.086   148712221.590          48.000    36932626.694   156273903.570          46.000  
C04  38127484.713   198539789.717          41.000    38127490.342   153523528.986          45.000    38127490.270   161329806.607          43.000  
C07  36077582.134   187865488.157          46.000    36077580.847   145269542.518          50.000    36077579.614   152656114.044          49.000  
C08  38127498.740   198540173.257          40.000    38127507.943   153524042.553          45.000    38127504.637   161330297.430          43.000  
C09  38944057.874   202791848.217          38.000    38944072.938   156811564.046          42.000    38944066.416   164785011.323          38.000  
C10  36701900.762   191116514.333          45.000    36701903.210   147783464.456          49.000    36701901.566   155297859.130          48.000  
C13  38879328.554   202455088.544          42.000    38879349.961   156551319.249          42.000    38879344.582   164511502.195          42.000  
C24  24792281.547   129099949.112          43.000                                                    24792287.301   104904311.712          45.000  
C26  22250890.062   115866312.457          49.000                                                    22250896.066    94150934.608          52.000  
C29  24296231.519   126517062.117          44.000                                                    24296237.076   102805585.896          45.000  
C35  21817931.980   113612031.276          50.000                                                    21817936.644    92319248.986          52.000  
C38  37205483.655   193739061.333          47.000                                                    37205490.052   157429026.467          49.000  
C40  36286421.997   188953021.092          48.000                                                    36286425.804   153539878.267          51.000  
C44  23960780.157   124770301.390          45.000                                                    23960787.894   101386199.994          47.000  
C45  23513972.582   122443398.694          46.000                                                    23513977.031    99495301.415          49.000  
G01  20260486.254   106470000.630          48.000    20260490.775    82963824.786          57.000    20260490.936    79507088.652          52.000  
G03  22379780.647   117606870.844          42.000    22379792.029    91641900.932          47.000    22379794.799    87823566.934          47.000  
G07  22748790.892   119545559.924          42.000    22748807.349    93152360.270          43.000                                                  
G08  24124143.483   126773346.631          37.000    24124153.721    98784523.943          24.000    24124154.829    94668541.608          41.000  
G14  20912468.399   109895886.551          46.000    20912471.044    85633212.580          43.000    20912476.065    82065205.926          52.000  
G17  22262669.643   116991318.483          45.000    22262672.788    91162174.563          50.000                                                  
G21  22574138.543   118628263.326          44.000    22574139.597    92437779.831          35.000                                                  
G30  22080493.382   116033817.920          45.000    22080501.280    90416005.715          49.000    22080504.032    86648689.362          48.000  
E02  24622173.488   129390470.790          45.000    24622177.383    99143456.745          50.000    24622180.814    96622870.669          48.000  
E10  26477785.447   139141978.321          40.000    26477791.023   106615457.649          45.000    26477794.275   103904925.921          43.000  
E11  23976068.732   125995462.121          43.000    23976068.661    96542178.859          47.000    23976071.859    94087753.472          45.000  
E24  26843446.894   141063099.424          39.000    26843467.104   108087301.984          45.000    26843472.197   105339328.555          42.000  
E25  23502921.610   123508760.776          48.000    23502925.773    94636639.225          53.000    23502929.043    92230641.860          51.000  
E34  26928863.308   141512272.507          39.000    26928881.213   108431629.254          44.000    26928884.894   105674918.995          40.000  
E36  23520843.114   123603299.223          48.000    23520848.475    94709271.416          53.000    23520851.816    92301448.277          50.000  
> 2023 02 16 09 21 17.0000000  0 37                     
R11  20373261.571          51.000    20373272.436          52.000  
R12  19616319.841          53.000    19616328.401          53.000  
R13  22886714.178          36.000    22886723.595          38.000  
R21  21807551.239          50.000    21807560.013          47.000  
R22  19773849.091          53.000    19773856.382          54.000  
C01  37110482.816   193243996.443          44.000    37110488.927   149428386.121          47.000    37110489.802   157026728.065          45.000  
C02  38347260.812   199684209.057          40.000    38347264.564   154408341.433          45.000    38347266.441   162259778.673          43.000  
C03  36932613.167   192317796.459          44.000    36932617.277   148712186.087          48.000    36932617.831   156273866.261          46.000  
C04  38127480.138   198539765.492          41.000    38127485.749   153523510.252          45.000    38127485.588   161329786.923          43.000  
C07  36077514.821   187865137.689          47.000    36077513.570   145269271.516          50.000    36077512.337   152655829.265          49.000  
C08  38127197.468   198538604.119          40.000    38127206.492   153522829.216          45.000    38127203.204   161329022.379          43.000  
C09  38944410.126   202793683.024          38.000    38944425.226   156812982.817          42.000    38944418.793   164786502.268          39.000  
C10  36701803.107   191116006.290          45.000    36701805.645   147783071.616          49.000    36701804.001   155297446.311          48.000  
C13  38879045.258   202453612.428          42.000    38879066.326   156550177.840          42.000    38879061.072   164510302.739          42.000  
C24  24791836.680   129097632.420          43.000                                                    24791842.380   104902429.217          45.000  
C26  22250915.060   115866442.734          49.000                                                    22250921.047    94151040.471          52.000  
C29  24296638.701   126519182.923          44.000                                                    24296644.365   102807309.232          45.000  
C35  21818016.340   113612470.602          50.000                                                    21818021.021    92319605.977          52.000  
C38  37205233.149   193737757.223          47.000                                                    37205239.600   157427966.779          49.000  
C40  36286348.985   188952641.412          48.000                                                    36286352.880   153539569.752          51.000  
C44  23960471.452   124768693.901          45.000                                                    23960479.171   101384893.785          47.000  
C45  23514518.659   122446241.901          47.000                                                    23514523.019    99497611.740          49.000  
G01  20260797.693   106471637.580          48.000    20260802.268    82965100.334          57.000    20260802.429    79508311.056          52.000  
G03  22379300.988   117604350.860          42.000    22379312.478    91639937.322          47.000    22379315.230    87821685.141          48.000  
G07  22749378.747   119548648.364          41.000    22749395.079    93154766.809          43.000                                                  
G08  24124569.980   126775589.087          37.000    24124580.452    98786271.304          24.000    24124581.595    94670216.171          42.000  
G14  20912103.674   109893969.939          46.000    20912106.319    85631719.119          43.000    20912111.358    82063774.694          52.000  
G17  22262423.712   116990026.205          45.000    22262426.893    91161167.593          50.000                                                  
G21  22574706.867   118631249.444          44.000    22574707.832    92440106.677          35.000                                                  
G30  22080805.768   116035459.319          45.000    22080813.630    90417284.719          49.000    22080816.382    86649915.075          48.000  
E02  24621810.836   129388565.106          45.000    24621814.731    99141996.550          50.000    24621818.162    96621447.609          48.000  
E10  26478261.907   139144482.198          40.000    26478267.446   106617376.208          45.000    26478270.770   103906795.695          43.000  
E11  23976400.399   125997204.491          43.000    23976400.203    96543513.926          47.000    23976403.437    94089054.601          45.000  
E24  26843916.582   141065567.275          39.000    26843936.738   108089192.908          45.000    26843941.848   105341171.391          42.000  
E25  23503006.005   123509204.150          48.000    23503010.133    94636978.965          53.000    23503013.403    92230972.960          51.000  
E34  26928407.362   141509875.130          39.000    26928424.891   108429792.323          43.000    26928428.626   105673128.766          40.000  
E36  23520730.718   123602708.550          48.000    23520736.079    94708818.834          53.000    23520739.420    92301007.206          50.000  
> 2023 02 16 09 21 18.0000000  0 37                     
R11  20373839.295          51.000    20373850.231          52.000  
R12  19616067.834          53.000    19616076.358          53.000  
R13  22885975.026          35.000    22885984.372          39.000  
R21  21808092.814          50.000    21808101.641          48.000  
R22  19774017.668          53.000    19774025.066          54.000  
C01  37110474.935   193243955.574          44.000    37110481.154   149428354.512          47.000    37110481.976   157026694.840          45.000  
C02  38347257.595   199684191.840          40.000    38347261.223   154408328.111          45.000    38347263.135   162259764.679          43.000  
C03  36932604.179   192317749.687          45.000    36932608.289   148712149.922          48.000    36932608.879   156273828.244          46.000  
C04  38127475.350   198539740.407          41.000    38127480.960   153523490.852          45.000    38127480.764   161329766.537          43.000  
C07  36077447.330   187864786.357          47.000    36077446.115   145268999.833          50.000    36077444.864   152655543.777          49.000  
C08  38126896.018   198537034.240          40.000    38126905.095   153521615.290          45.000    38126901.754   161327746.730          43.000  
C09  38944762.164   202795516.947          38.000    38944777.353   156814400.913          42.000    38944771.009   164787992.453          38.000  
C10  36701705.382   191115497.355          45.000    36701707.812   147782678.064          49.000    36701706.239   155297032.757          48.000  
C13  38878761.587   202452135.515          42.000    38878782.816   156549035.812          42.000    38878777.545   164509102.634          42.000  
C24  24791391.670   129095315.217          43.000                                                    24791397.388   104900546.298          45.000  
C26  22250940.006   115866572.700          49.000                                                    22250946.027    94151146.077          52.000  
C29  24297045.614   126521302.878          44.000                                                    24297051.475   102809031.857          45.000  
C35  21818100.592   113612909.242          50.000                                                    21818105.256    92319962.408          52.000  
C38  37204982.500   193736452.387          47.000                                                    37204989.022   157426906.497          49.000  
C40  36286275.936   188952260.849          48.000                                                    36286279.814   153539260.510          51.000  
C44  23960162.622   124767085.735          45.000                                                    23960170.341   101383587.018          47.000  
C45  23515064.594   122449084.504          47.000                                                    23515068.900    99499921.569          49.000  
G01  20261109.079   106473274.189          48.000    20261113.689    82966375.612          57.000    20261113.868    79509533.195          52.000  
G03  22378821.348   117601830.372          42.000    22378832.820    91637973.318          47.000    22378835.608    87819802.969          48.000  
G07  22749966.405   119551736.116          41.000    22749982.702    93157172.821          43.000                                                  
G08  24124996.478   126777830.680          37.000    24125007.003    98788017.997          24.000    24125008.147    94671890.088          42.000  
G14  20911738.700   109892052.841          46.000    20911741.505    85630225.276          43.000    20911746.526    82062343.095          52.000  
G17  22262177.655   116988733.152          45.000    22262180.836    91160160.022          50.000                                                  
G21  22575274.977   118634234.817          44.000    22575275.924    92442432.937          35.000                                                  
G30  22081118.083   116037100.338          45.000    22081125.909    90418563.432          49.000    22081128.643    86651140.506          48.000  
E02  24621448.112   129386658.762          46.000    24621451.972    99140535.854          50.000    24621455.403    96620024.045          48.000  
E10  26478738.277   139146985.238          40.000    26478743.763   106619294.129          45.000    26478747.087   103908664.855          43.000  
E11  23976731.762   125998946.195          44.000    23976731.620    96544848.487          47.000    23976734.836    94090355.228          45.000  
E24  26844386.197   141068034.453          39.000    26844406.229   108091083.312          45.000    26844411.339   105343013.734          42.000  
E25  23503090.258   123509647.035          48.000    23503094.403    94637318.318          53.000    23503097.691    92231303.692          51.000  
E34  26927951.166   141507477.087          39.000    26927968.427   108427954.884          44.000    26927972.269   105671338.042          40.000  
E36  23520618.197   123602117.374          48.000    23520623.557    94708365.863          53.000    23520626.935    92300565.747          50.000  
> 2023 02 16 09 21 19.0000000  0 37                     
R11  20374417.376          51.000    20374428.294          52.000  
R12  19615816.185          53.000    19615824.601          53.000  
R13  22885235.767          35.000    22885245.362          39.000  
R21  21808634.602          50.000    21808643.430          47.000  
R22  19774186.530          53.000    19774193.928          54.000  
C01  37110467.216   193243915.313          44.000    37110473.381   149428323.393          47.000    37110474.203   157026662.143          45.000  
C02  38347254.361   199684175.216          40.000    38347258.042   154408315.274          45.000    38347259.918   162259751.192          43.000  
C03  36932595.334   192317703.523          45.000    36932599.462   148712114.232          48.000    36932600.033   156273790.746          46.000  
C04  38127470.632   198539715.941          41.000    38127476.297   153523471.949          45.000    38127476.046   161329746.668          43.000  
C07  36077379.910   187864435.636          47.000    36077378.766   145268728.649          50.000    36077377.515   152655258.792          49.000  
C08  38126594.639   198535465.095          40.000    38126603.734   153520401.946          46.000    38126600.321   161326471.691          43.000  
C09  38945114.488   202797351.512          38.000    38945129.551   156815819.493          42.000    38945123.315   164789483.173          38.000  
C10  36701607.727   191114989.009          45.000    36701610.247   147782284.990          49.000    36701608.621   155296619.692          48.000  
C13  38878477.935   202450659.318          42.000    38878499.288   156547894.347          43.000    38878494.035   164507903.122          42.000  
C24  24790947.017   129092998.982          43.000                                                    24790952.556   104898664.172          45.000  
C26  22250965.165   115866703.829          49.000                                                    22250971.169    94151252.635          52.000  
C29  24297452.795   126523423.434          44.000                                                    24297458.728   102810754.995          45.000  
C35  21818184.952   113613348.685          51.000                                                    21818189.634    92320319.494          52.000  
C38  37204732.048   193735148.312          47.000                                                    37204738.588   157425846.834          49.000  
C40  36286202.923   188951880.873          48.000                                                    36286206.801   153538951.749          51.000  
C44  23959853.898   124765478.377          45.000                                                    23959861.654   101382280.917          47.000  
C45  23515610.689   122451927.990          47.000                                                    23515614.924    99502232.128          49.000  
G01  20261420.804   106474911.946          48.000    20261425.343    82967651.786          57.000    20261425.539    79510756.195          52.000  
G03  22378341.940   117599310.881          42.000    22378353.376    91636010.090          47.000    22378356.146    87817921.553          48.000  
G07  22750554.082   119554824.679          41.000    22750570.468    93159579.454          43.000                                                  
G08  24125422.976   126780072.927          37.000    24125433.697    98789765.196          24.000    24125434.859    94673564.502          42.000  
G14  20911374.082   109890136.752          46.000    20911376.870    85628732.221          43.000    20911381.909    82060912.242          52.000  
G17  22261931.742   116987440.812          45.000    22261934.923    91159153.004          50.000                                                  
G21  22575843.283   118637220.932          44.000    22575844.159    92444759.780          35.000                                                  
G30  22081430.594   116038742.473          45.000    22081438.403    90419843.013          50.000    22081441.137    86652366.767          48.000  
E02  24621085.568   129384753.258          45.000    24621089.374    99139075.795          51.000    24621092.823    96618601.107          48.000  
E10  26479214.755   139149488.959          40.000    26479220.205   106621212.560          45.000    26479223.475   103910534.513          43.000  
E11  23977063.376   126000688.744          44.000    23977063.197    96546183.682          47.000    23977066.449    94091656.480          45.000  
E24  26844856.028   141070502.468          39.000    26844875.916   108092974.343          45.000    26844881.044   105344856.693          42.000  
E25  23503174.760   123510090.932          48.000    23503178.888    94637658.440          53.000    23503182.158    92231635.165          51.000  
E34  26927495.130   141505079.877          39.000    26927512.106   108426118.081          43.000    26927515.984   105669547.937          40.000  
E36  23520505.890   123601527.180          48.000    23520511.251    94707913.635          53.000    23520514.592    92300125.017          51.000  
> 2023 02 16 09 21 20.0000000  0 37                     
R11  20374995.153          52.000    20375005.945          52.000  
R12  19615564.053          53.000    19615572.505          54.000  
R13  22884496.275          35.000    22884505.692          38.000  
R21  21809175.855          50.000    21809184.682          47.000  
R22  19774354.946          53.000    19774362.379          54.000  
C01  37110459.014   193243872.394          44.000    37110465.107   149428290.201          47.000    37110465.929   157026627.252          44.000  
C02  38347250.734   199684155.941          40.000    38347254.379   154408300.358          45.000    38347256.255   162259735.519          43.000  
C03  36932585.953   192317654.699          45.000    36932590.045   148712076.469          48.000    36932590.634   156273751.058          46.000  
C04  38127465.539   198539688.802          41.000    38127471.115   153523450.959          45.000    38127470.864   161329724.613          43.000  
C07  36077312.061   187864082.243          47.000    36077310.864   145268455.381          50.000    36077309.667   152654971.631          49.000  
C08  38126292.760   198533893.404          40.000    38126301.927   153519186.610          46.000    38126298.496   161325194.556          43.000  
C09  38945466.203   202799183.371          38.000    38945481.196   156817235.988          42.000    38945475.102   164790971.703          38.000  
C10  36701509.609   191114477.986          45.000    36701512.146   147781889.830          49.000    36701510.466   155296204.436          47.000  
C13  38878193.835   202449180.548          42.000    38878215.153   156546750.877          42.000    38878210.060   164506701.502          42.000  
C24  24790501.846   129090680.424          43.000                                                    24790507.314   104896780.165          45.000  
C26  22250989.896   115866832.838          49.000                                                    22250995.954    94151357.460          51.000  
C29  24297859.351   126525541.321          44.000                                                    24297865.463   102812475.954          45.000  
C35  21818268.829   113613785.639          50.000                                                    21818273.529    92320674.552          52.000  
C38  37204481.042   193733841.699          47.000                                                    37204487.635   157424785.104          48.000  
C40  36286129.428   188951498.193          48.000                                                    36286133.305   153538640.795          51.000  
C44  23959544.639   124763868.532          45.000                                                    23959552.502   101380972.789          46.000  
C45  23516156.373   122454769.078          47.000                                                    23516160.501    99504540.725          49.000  
G01  20261731.993   106476547.534          48.000    20261736.585    82968926.270          57.000    20261736.782    79511977.576          52.000  
G03  22377861.889   117596789.057          42.000    22377873.468    91634045.046          47.000    22377876.273    87816038.394          47.000  
G07  22751141.258   119557910.709          41.000    22751157.751    93161984.121          43.000                                                  
G08  24125849.474   126782312.510          37.000    24125859.874    98791510.323          24.000    24125861.142    94675236.900          42.000  
G14  20911008.982   109888218.344          46.000    20911011.806    85627237.358          43.000    20911016.845    82059479.674          52.000  
G17  22261685.239   116986145.852          45.000    22261688.509    91158143.950          50.000                                                  
G21  22576410.911   118640204.468          44.000    22576411.911    92447084.613          35.000                                                  
G30  22081742.694   116040382.402          45.000    22081750.485    90421120.872          49.000    22081753.219    86653591.382          48.000  
E02  24620722.434   129382845.271          45.000    24620726.311    99137613.833          50.000    24620729.760    96617176.314          48.000  
E10  26479690.768   139151990.025          40.000    26479696.128   106623128.966          45.000    26479699.434   103912402.194          43.000  
E11  23977394.542   126002428.792          44.000    23977394.292    96547516.964          47.000    23977397.580    94092955.858          45.000  
E24  26845325.161   141072967.977          39.000    26845345.121   108094863.477          45.000    26845350.303   105346697.784          41.000  
E25  23503258.780   123510532.499          48.000    23503262.908    94637996.786          53.000    23503266.196    92231964.907          51.000  
E34  26927038.434   141502680.170          39.000    26927055.302   108424279.351          43.000    26927059.305   105667755.968          40.000  
E36  23520393.101   123600934.650          48.000    23520398.497    94707459.614          53.000    23520401.874    92299682.544          50.000  
> 2023 02 16 09 21 21.0000000  0 37                     
R11  20375572.983          52.000    20375583.740          52.000  
R12  19615312.082          53.000    19615320.516          53.000  
R13  22883755.997          35.000    22883765.986          38.000  
R21  21809717.197          49.000    21809726.060          47.000  
R22  19774523.415          52.000    19774530.902          54.000  
C01  37110450.741   193243829.542          44.000    37110456.834   149428257.069          47.000    37110457.692   157026592.443          44.000  
C02  38347247.071   199684136.723          40.000    38347250.734   154408285.507          45.000    38347252.556   162259719.906          43.000  
C03  36932576.643   192317605.933          45.000    36932580.699   148712038.769          48.000    36932581.235   156273711.443          46.000  
C04  38127460.161   198539661.737          41.000    38127465.986   153523430.033          45.000    38127465.647   161329702.625          43.000  
C07  36077244.087   187863728.899          46.000    36077242.997   145268182.156          50.000    36077241.800   152654684.503          49.000  
C08  38125990.827   198532321.887          40.000    38126000.119   153517971.436          46.000    38125996.634   161323917.575          43.000  
C09  38945817.991   202801015.293          38.000    38945832.858   156818652.536          42.000    38945826.925   164792460.278          38.000  
C10  36701411.454   191113966.980          45.000    36701414.045   147781494.690          49.000    36701412.330   155295789.207          47.000  
C13  38877909.735   202447701.931          42.000    38877931.053   156545607.524          42.000    38877926.068   164505500.021          41.000  
C24  24790056.782   129088362.308          43.000                                                    24790062.143   104894896.499          45.000  
C26  22251014.752   115866962.455          49.000                                                    22251020.809    94151462.789          51.000  
C29  24298266.050   126527659.275          44.000                                                    24298272.215   102814196.960          45.000  
C35  21818352.778   113614222.834          50.000                                                    21818357.477    92321029.814          52.000  
C38  37204230.107   193732535.284          47.000                                                    37204236.737   157423723.544          48.000  
C40  36286055.897   188951115.559          48.000                                                    36286059.810   153538329.876          51.000  
C44  23959235.469   124762258.935          45.000                                                    23959243.385   101379664.865          46.000  
C45  23516702.057   122457610.500          47.000                                                    23516706.114    99506849.609          49.000  
G01  20262043.379   106478183.721          48.000    20262047.935    82970201.221          57.000    20262048.132    79513199.406          52.000  
G03  22377382.070   117594267.691          42.000    22377393.649    91632080.357          47.000    22377396.437    87814155.573          48.000  
G07  22751728.523   119560996.998          41.000    22751745.088    93164388.989          42.000                                                  
G08  24126275.990   126784552.178          37.000    24126286.086    98793255.519          24.000    24126287.372    94676909.382          42.000  
G14  20910643.990   109886300.403          45.000    20910646.831    85625742.861          43.000    20910651.852    82058047.443          52.000  
G17  22261438.843   116984851.065          45.000    22261442.131    91157135.025          50.000                                                  
G21  22576978.592   118643188.198          44.000    22576979.700    92449409.592          35.000                                                  
G30  22082054.884   116042022.890          45.000    22082062.657    90422399.173          49.000    22082065.391    86654816.415          48.000  
E02  24620359.389   129380937.556          45.000    24620363.302    99136152.082          50.000    24620366.679    96615751.733          48.000  
E10  26480166.745   139154491.217          40.000    26480172.106   106625045.461          46.000    26480175.286   103914269.975          43.000  
E11  23977725.691   126004169.111          44.000    23977725.495    96548850.459          47.000    23977728.747    94094255.458          45.000  
E24  26845794.348   141075433.771          39.000    26845814.415   108096752.818          45.000    26845819.525   105348539.093          41.000  
E25  23503342.854   123510974.518          48.000    23503347.018    94638335.478          53.000    23503350.306    92232294.988          50.000  
E34  26926581.487   141500280.751          39.000    26926598.642   108422440.858          43.000    26926602.680   105665964.209          40.000  
E36  23520280.365   123600342.540          48.000    23520285.815    94707005.930          53.000    23520289.174    92299240.390          50.000  
> 2023 02 16 09 21 22.0000000  0 37                     
R11  20376150.975          52.000    20376161.696          52.000  
R12  19615060.254          53.000    19615068.759          53.000  
R13  22883016.023          35.000    22883026.476          38.000  
R21  21810258.396          49.000    21810267.420          47.000  
R22  19774692.009          53.000    19774699.568          54.000  
C01  37110442.628   193243787.013          44.000    37110448.650   149428224.179          47.000    37110449.526   157026557.884          44.000  
C02  38347243.336   199684117.855          40.000    38347247.160   154408270.908          45.000    38347248.929   162259704.576          43.000  
C03  36932567.387   192317557.498          45.000    36932571.407   148712001.310          48.000    36932571.943   156273672.081          46.000  
C04  38127455.015   198539635.000          41.000    38127460.822   153523409.360          45.000    38127460.608   161329680.894          43.000  
C07  36077176.239   187863375.876          46.000    36077175.202   145267909.173          50.000    36077174.005   152654397.647          49.000  
C08  38125689.001   198530750.795          40.000    38125698.543   153516756.566          46.000    38125694.880   161322640.936          43.000  
C09  38946169.743   202802847.529          38.000    38946184.574   156820069.326          42.000    38946178.820   164793949.102          38.000  
C10  36701313.371   191113456.288          45.000    36701315.980   147781099.788          49.000    36701314.282   155295374.228          47.000  
C13  38877625.672   202446223.699          42.000    38877647.007   156544464.476          42.000    38877642.200   164504298.851          42.000  
C24  24789611.915   129086044.849          43.000                                                    24789617.115   104893013.373          45.000  
C26  22251039.840   115867092.952          49.000                                                    22251045.862    94151568.822          52.000  
C29  24298672.821   126529777.543          44.000                                                    24298679.021   102815918.229          45.000  
C35  21818436.780   113614660.538          50.000                                                    21818441.533    92321385.482          52.000  
C38  37203979.405   193731229.340          47.000                                                    37203985.927   157422662.355          48.000  
C40  36285982.491   188950733.216          48.000                                                    36285986.404   153538019.188          51.000  
C44  23958926.317   124760649.850          45.000                                                    23958934.376   101378357.349          46.000  
C45  23517247.849   122460452.510          47.000                                                    23517251.852    99509158.958          49.000  
G01  20262354.943   106479820.762          48.000    20262359.446    82971476.837          57.000    20262359.660    79514421.874          52.000  
G03  22376902.358   117591747.032          42.000    22376913.955    91630116.221          47.000    22376916.743    87812273.270          47.000  
G07  22752315.878   119564083.782          41.000    22752332.514    93166794.241          43.000                                                  
G08  24126702.487   126786792.204          37.000    24126712.351    98795000.989          24.000    24126713.673    94678582.122          42.000  
G14  20910279.122   109884383.164          45.000    20910281.999    85624248.911          43.000    20910287.002    82056615.741          52.000  
G17  22261192.518   116983556.679          45.000    22261195.842    91156126.418          50.000                                                  
G21  22577546.291   118646172.362          44.000    22577547.577    92451734.915          35.000                                                  
G30  22082367.252   116043664.180          45.000    22082375.008    90423678.095          50.000    22082377.706    86656042.050          48.000  
E02  24619996.451   129379030.385          46.000    24620000.400    99134690.748          51.000    24620003.759    96614327.549          48.000  
E10  26480642.704   139156992.770          40.000    26480648.154   106626962.246          45.000    26480651.317   103916138.016          43.000  
E11  23978056.911   126005909.975          44.000    23978056.804    96550184.364          47.000    23978060.038    94095555.454          45.000  
E24  26846263.714   141077900.081          39.000    26846283.906   108098642.558          45.000    26846288.802   105350380.781          42.000  
E25  23503427.089   123511417.238          48.000    23503431.270    94638674.703          53.000    23503434.540    92232625.593          50.000  
E34  26926124.541   141497881.851          38.000    26926141.981   108420602.760          43.000    26926146.091   105664172.847          40.000  
E36  23520167.826   123599751.114          48.000    23520173.294    94706552.762          53.000    23520176.617    92298798.748          50.000  
> 2023 02 16 09 21 23.0000000  0 37                     
R11  20376729.216          52.000    20376739.902          52.000  
R12  19614808.694          53.000    19614817.289          53.000  
R13  22882276.138          35.000    22882287.217          38.000  
R21  21810799.685          49.000    21810808.887          47.000  
R22  19774860.836          53.000    19774868.430          54.000  
C01  37110434.533   193243745.075          44.000    37110440.680   149428191.756          47.000    37110441.502   157026523.803          45.000  
C02  38347239.869   199684099.550          40.000    38347243.693   154408256.760          45.000    38347245.391   162259689.695          43.000  
C03  36932558.166   192317509.656          45.000    36932562.240   148711964.318          48.000    36932562.794   156273633.211          46.000  
C04  38127449.904   198539608.874          41.000    38127455.783   153523389.151          45.000    38127455.622   161329659.662          43.000  
C07  36077108.569   187863023.454          47.000    36077107.479   145267636.660          50.000    36077106.317   152654111.271          49.000  
C08  38125387.390   198529180.392          40.000    38125396.986   153515542.253          46.000    38125393.305   161321364.883          43.000  
C09  38946521.548   202804680.362          38.000    38946536.433   156821486.559          42.000    38946530.768   164795438.412          38.000  
C10  36701215.359   191112946.151          45.000    36701218.040   147780705.320          49.000    36701216.289   155294959.702          47.000  
C13  38877341.894   202444746.164          42.000    38877363.247   156543321.966          42.000    38877358.369   164503098.240          42.000  
C24  24789167.227   129083728.341          44.000                                                    24789172.230   104891131.023          45.000  
C26  22251065.178   115867224.584          49.000                                                    22251071.146    94151675.784          52.000  
C29  24299079.806   126531896.413          44.000                                                    24299085.971   102817639.977          45.000  
C35  21818521.015   113615099.015          50.000                                                    21818525.732    92321741.785          52.000  
C38  37203728.845   193729924.123          47.000                                                    37203735.314   157421601.762          48.000  
C40  36285909.264   188950351.449          48.000                                                    36285913.106   153537708.969          51.000  
C44  23958617.559   124759041.539          45.000                                                    23958625.492   101377050.471          46.000  
C45  23517793.890   122463295.385          47.000                                                    23517797.750    99511469.013          49.000  
G01  20262666.740   106481458.923          48.000    20262671.171    82972753.329          57.000    20262671.421    79515645.179          52.000  
G03  22376422.968   117589227.341          42.000    22376434.458    91628152.839          47.000    22376437.245    87810391.696          48.000  
G07  22752903.358   119567171.356          41.000    22752920.083    93169200.111          43.000                                                  
G08  24127129.414   126789032.852          37.000    24127138.795    98796746.948          24.000    24127140.100    94680255.311          42.000  
G14  20909914.451   109882466.907          46.000    20909917.346    85622755.726          43.000    20909922.349    82055184.770          52.000  
G17  22260946.390   116982262.984          45.000    22260949.660    91155118.348          50.000                                                  
G21  22578114.222   118649157.247          44.000    22578115.580    92454060.800          35.000                                                  
G30  22082679.835   116045306.570          45.000    22082687.555    90424957.873          50.000    22082690.253    86657268.512          48.000  
E02  24619633.745   129377124.035          46.000    24619637.605    99133230.033          51.000    24619641.000    96612903.967          48.000  
E10  26481118.806   139159494.983          40.000    26481124.274   106628879.515          45.000    26481127.491   103918006.543          43.000  
E11  23978388.382   126007651.641          44.000    23978388.185    96551518.887          47.000    23978391.473    94096856.044          45.000  
E24  26846733.240   141080367.212          39.000    26846753.450   108100532.913          45.000    26846758.292   105352223.075          42.000  
E25  23503511.520   123511860.935          48.000    23503515.683    94639014.676          53.000    23503518.989    92232956.917          51.000  
E34  26925667.862   141495483.767          38.000    26925685.481   108418765.274          43.000    26925689.752   105662382.079          40.000  
E36  23520055.412   123599160.644          48.000    23520060.933    94706100.324          53.000    23520064.257    92298357.810          50.000  
> 2023 02 16 09 21 24.0000000  0 37                     
R11  20377307.601          52.000    20377318.197          52.000  
R12  19614557.277          53.000    19614565.943          53.000  
R13  22881536.164          34.000    22881548.011          38.000  
R21  21811341.009          49.000    21811350.372          47.000  
R22  19775029.823          53.000    19775037.346          54.000  
C01  37110426.457   193243703.115          44.000    37110432.621   149428159.313          47.000    37110433.426   157026489.713          45.000  
C02  38347236.278   199684081.231          40.000    38347240.119   154408242.597          45.000    38347241.888   162259674.816          43.000  
C03  36932548.982   192317461.789          45.000    36932553.002   148711927.306          48.000    36932553.645   156273594.310          46.000  
C04  38127444.865   198539582.709          41.000    38127450.583   153523368.926          45.000    38127450.547   161329638.402          43.000  
C07  36077040.756   187862670.985          47.000    36077039.791   145267364.109          50.000    36077038.612   152653824.864          49.000  
C08  38125085.850   198527610.117          40.000    38125095.428   153514328.021          46.000    38125091.711   161320088.908          43.000  
C09  38946873.210   202806513.145          38.000    38946888.363   156822903.796          41.000    38946882.752   164796927.691          38.000  
C10  36701117.401   191112435.974          45.000    36701120.046   147780310.828          49.000    36701118.366   155294545.141          47.000  
C13  38877057.991   202443268.702          42.000    38877079.666   156542179.510          42.000    38877074.591   164501897.693          41.000  
C24  24788722.556   129081412.161          44.000                                                    24788727.416   104889248.944          45.000  
C26  22251090.570   115867356.737          49.000                                                    22251096.520    94151783.173          52.000  
C29  24299486.701   126534015.245          44.000                                                    24299492.848   102819361.699          45.000  
C35  21818605.160   113615537.641          50.000                                                    21818609.931    92322098.209          52.000  
C38  37203478.196   193728619.013          47.000                                                    37203484.665   157420541.258          48.000  
C40  36285835.911   188949969.612          49.000                                                    36285839.789   153537398.700          51.000  
C44  23958308.800   124757433.378          45.000                                                    23958316.662   101375743.723          46.000  
C45  23518339.950   122466138.500          47.000                                                    23518343.702    99513779.260          49.000  
G01  20262978.536   106483097.587          48.000    20262982.986    82974030.210          57.000    20262983.236    79516868.856          52.000  
G03  22375943.542   117586707.985          42.000    22375955.032    91626189.716          47.000    22375957.801    87808510.374          48.000  
G07  22753490.963   119570259.068          41.000    22753507.688    93171606.090          42.000                                                  
G08  24127556.180   126791273.482          38.000    24127565.150    98798492.892          24.000    24127566.490    94681928.522          42.000  
G14  20909549.941   109880551.006          45.000    20909552.764    85621262.816          43.000    20909557.767    82053754.067          52.000  
G17  22260700.263   116980969.353          45.000    22260703.497    91154110.324          50.000                                                  
G21  22578682.260   118652142.221          44.000    22578683.600    92456386.753          35.000                                                  
G30  22082992.436   116046949.410          45.000    22083000.191    90426238.005          50.000    22083002.889    86658495.297          48.000  
E02  24619271.040   129375217.862          45.000    24619274.882    99131769.459          50.000    24619278.277    96611480.528          48.000  
E10  26481594.998   139161997.216          40.000    26481600.430   106630796.813          45.000    26481603.790   103919875.092          43.000  
E11  23978719.834   126009393.497          44.000    23978719.656    96552853.556          47.000    23978722.908    94098156.781          45.000  
E24  26847202.749   141082834.514          39.000    26847223.066   108102423.414          45.000    26847227.908   105354065.495          42.000  
E25  23503596.005   123512304.988          48.000    23503600.204    94639354.922          53.000    23503603.492    92233288.514          50.000  
E34  26925211.201   141493085.862          38.000    26925229.070   108416927.927          43.000    26925233.413   105660591.447          40.000  
E36  23519943.159   123598570.512          48.000    23519948.627    94705648.145          53.000    23519951.950    92297917.127          50.000  
> 2023 02 16 09 21 25.0000000  0 37                     
R11  20377885.985          51.000    20377896.689          52.000  
R12  19614305.967          53.000    19614314.794          53.000  
R13  22880796.833          34.000    22880808.716          38.000  
R21  21811882.476          49.000    21811891.857          47.000  
R22  19775198.828          53.000    19775206.405          54.000  
C01  37110418.344   193243661.310          44.000    37110424.580   149428126.982          47.000    37110425.420   157026455.738          44.000  
C02  38347232.775   199684063.069          40.000    38347236.724   154408228.553          45.000    38347238.386   162259660.054          43.000  
C03  36932539.940   192317414.081          44.000    36932543.853   148711890.413          48.000    36932544.461   156273555.543          46.000  
C04  38127439.808   198539556.705          41.000    38127445.598   153523348.811          45.000    38127445.562   161329617.264          43.000  
C07  36076973.068   187862318.683          46.000    36076972.157   145267091.684          50.000    36076970.959   152653538.591          49.000  
C08  38124784.221   198526040.098          40.000    38124793.995   153513113.985          45.000    38124790.189   161318813.139          43.000  
C09  38947224.891   202808346.090          38.000    38947240.222   156824321.117          41.000    38947234.754   164798417.093          38.000  
C10  36701019.515   191111925.925          45.000    36701022.070   147779916.419          49.000    36701020.391   155294130.678          47.000  
C13  38876774.195   202441791.464          41.000    38876796.031   156541037.225          42.000    38876790.902   164500697.323          42.000  
C24  24788277.814   129079096.499          43.000                                                    24788282.746   104887367.279          45.000  
C26  22251116.105   115867489.599          49.000                                                    22251122.037    94151891.130          52.000  
C29  24299893.722   126536134.226          44.000                                                    24299899.762   102821083.547          45.000  
C35  21818689.519   113615976.622          50.000                                                    21818694.237    92322454.915          52.000  
C38  37203227.726   193727314.203          47.000                                                    37203234.124   157419480.995          49.000  
C40  36285762.684   188949587.918          48.000                                                    36285766.490   153537088.542          51.000  
C44  23958000.166   124755825.572          45.000                                                    23958007.903   101374437.247          46.000  
C45  23518886.081   122468982.036          47.000                                                    23518889.744    99516089.854          49.000  
G01  20263290.458   106484736.940          48.000    20263294.943    82975307.630          57.000    20263295.193    79518093.050          52.000  
G03  22375464.152   117584189.178          42.000    22375475.695    91624227.020          47.000    22375478.501    87806629.455          48.000  
G07  22754078.711   119573347.123          41.000    22754095.347    93174012.331          43.000                                                  
G08  24127982.767   126793514.303          38.000    24127991.541    98800238.986          24.000    24127992.953    94683601.856          42.000  
G14  20909185.448   109878635.653          45.000    20909188.272    85619770.336          43.000    20909193.311    82052323.771          52.000  
G17  22260454.188   116979675.959          45.000    22260457.369    91153102.487          50.000                                                  
G21  22579250.299   118655127.477          44.000    22579251.657    92458712.924          35.000                                                  
G30  22083305.108   116048592.900          45.000    22083312.953    90427518.640          50.000    22083315.669    86659722.570          48.000  
E02  24618908.406   129373312.061          45.000    24618912.212    99130309.174          50.000    24618915.643    96610057.371          48.000  
E10  26482071.279   139164499.646          40.000    26482076.604   106632714.257          45.000    26482079.910   103921743.792          43.000  
E11  23979051.412   126011135.717          44.000    23979051.197    96554188.511          47.000    23979054.450    94099457.789          45.000  
E24  26847672.364   141085302.177          39.000    26847692.717   108104314.182          45.000    26847697.578   105355908.197          41.000  
E25  23503680.632   123512749.563          48.000    23503684.796    94639695.570          53.000    23503688.102    92233620.502          50.000  
E34  26924754.576   141490688.309          38.000    26924772.695   108415090.863          42.000    26924777.163   105658801.088          40.000  
E36  23519831.031   123597980.884          47.000    23519836.391    94705196.352          53.000    23519839.769    92297476.821          50.000  
> 2023 02 16 09 21 26.0000000  0 37                     
R11  20378464.620          51.000    20378475.413          52.000  
R12  19614055.014          53.000    19614063.949          53.000  
R13  22880057.931          34.000    22880069.671          38.000  
R21  21812424.247          49.000    21812433.539          47.000  
R22  19775368.137          53.000    19775375.678          54.000  
C01  37110410.428   193243620.302          44.000    37110416.754   149428095.263          47.000    37110417.576   157026422.406          44.000  
C02  38347229.470   199684045.701          40.000    38347233.383   154408215.107          45.000    38347235.027   162259645.936          43.000  
C03  36932530.934   192317367.155          44.000    36932534.883   148711854.122          48.000    36932535.455   156273517.415          46.000  
C04  38127434.876   198539531.486          41.000    38127440.773   153523329.304          45.000    38127440.737   161329596.764          43.000  
C07  36076905.559   187861967.156          46.000    36076904.612   145266819.857          50.000    36076903.450   152653252.947          49.000  
C08  38124482.842   198524470.971          40.000    38124492.724   153511900.639          45.000    38124488.846   161317538.097          43.000  
C09  38947576.660   202810179.833          38.000    38947592.117   156825739.054          41.000    38947586.863   164799907.140          38.000  
C10  36700921.646   191111416.646          45.000    36700924.291   147779522.605          49.000    36700922.611   155293716.852          47.000  
C13  38876490.703   202440315.095          41.000    38876512.360   156539895.616          42.000    38876507.339   164499497.652          42.000  
C24  24787833.268   129076781.979          43.000                                                    24787838.289   104885486.536          45.000  
C26  22251141.890   115867623.792          49.000                                                    22251147.822    94152000.173          52.000  
C29  24300300.814   126538253.997          44.000                                                    24300306.889   102822806.035          45.000  
C35  21818773.933   113616416.550          50.000                                                    21818778.722    92322812.390          52.000  
C38  37202977.328   193726010.309          47.000                                                    37202983.725   157418421.477          49.000  
C40  36285689.510   188949206.976          48.000                                                    36285693.352   153536778.996          51.000  
C44  23957691.622   124754218.729          45.000                                                    23957699.305   101373131.557          46.000  
C45  23519432.355   122471826.636          47.000                                                    23519435.964    99518401.308          49.000  
G01  20263602.683   106486377.625          48.000    20263607.150    82976586.084          57.000    20263607.383    79519318.235          52.000  
G03  22374984.923   117581671.541          42.000    22374996.591    91622265.239          47.000    22374999.361    87804749.424          48.000  
G07  22754666.494   119576436.167          41.000    22754683.202    93176419.346          42.000                                                  
G08  24128409.765   126795755.928          38.000    24128418.039    98801985.703          24.000    24128419.611    94685275.805          42.000  
G14  20908821.242   109876721.480          45.000    20908824.030    85618278.773          43.000    20908829.069    82050894.365          52.000  
G17  22260208.221   116978383.458          45.000    22260211.420    91152095.348          50.000                                                  
G21  22579818.605   118658113.656          44.000    22579819.927    92461039.818          35.000                                                  
G30  22083618.066   116050237.676          45.000    22083625.946    90428800.279          50.000    22083628.627    86660950.803          48.000  
E02  24618545.951   129371407.275          46.000    24618549.739    99128849.665          50.000    24618553.170    96608634.969          48.000  
E10  26482547.739   139167002.924          40.000    26482553.028   106634632.349          45.000    26482556.280   103923613.123          43.000  
E11  23979383.132   126012878.944          44.000    23979382.936    96555524.225          47.000    23979386.170    94100759.550          45.000  
E24  26848142.034   141087770.843          39.000    26848162.583   108106205.728          45.000    26848167.408   105357751.649          41.000  
E25  23503765.457   123513195.326          48.000    23503769.638    94640037.127          53.000    23503772.926    92233953.377          51.000  
E34  26924298.344   141488291.766          38.000    26924316.535   108413254.564          42.000    26924321.056   105657011.475          40.000  
E36  23519719.099   123597392.419          48.000    23519724.424    94704745.452          53.000    23519727.801    92297037.382          50.000  
> 2023 02 16 09 21 27.0000000  0 37                     
R11  20379043.362          51.000    20379054.262          52.000  
R12  19613804.258          53.000    19613813.246          53.000  
R13  22879318.547          34.000    22879330.805          38.000  
R21  21812966.071          49.000    21812975.149          47.000  
R22  19775537.535          53.000    19775545.040          54.000  
C01  37110402.423   193243579.294          44.000    37110408.856   149428063.561          47.000    37110409.695   157026389.100          45.000  
C02  38347226.164   199684028.316          40.000    38347229.970   154408201.682          45.000    38347231.739   162259631.823          43.000  
C03  36932521.874   192317320.241          45.000    36932525.752   148711817.852          48.000    36932526.502   156273479.293          46.000  
C04  38127430.034   198539506.270          41.000    38127436.020   153523309.816          45.000    38127435.913   161329576.293          43.000  
C07  36076838.050   187861615.633          46.000    36076837.103   145266548.048          50.000    36076835.941   152652967.306          49.000  
C08  38124181.517   198522901.952          40.000    38124191.345   153510687.390          45.000    38124187.521   161316263.153          43.000  
C09  38947928.501   202812013.570          37.000    38947944.315   156827157.000          41.000    38947939.026   164801397.197          38.000  
C10  36700823.831   191110907.341          45.000    36700826.494   147779128.783          49.000    36700824.778   155293303.002          47.000  
C13  38876207.246   202438838.843          42.000    38876228.796   156538754.102          42.000    38876223.811   164498298.090          42.000  
C24  24787388.794   129074467.812          43.000                                                    24787393.887   104883606.087          45.000  
C26  22251167.818   115867758.538          49.000                                                    22251173.697    94152109.666          52.000  
C29  24300707.817   126540373.765          43.000                                                    24300713.928   102824528.515          45.000  
C35  21818858.453   113616856.676          50.000                                                    21818863.242    92323170.026          52.000  
C38  37202726.983   193724706.566          47.000                                                    37202733.326   157417362.081          49.000  
C40  36285616.390   188948826.009          48.000                                                    36285620.161   153536469.431          51.000  
C44  23957383.113   124752612.075          45.000                                                    23957390.779   101371826.031          46.000  
C45  23519978.718   122474671.498          47.000                                                    23519982.292    99520712.980          49.000  
G01  20263914.998   106488018.839          48.000    20263919.465    82977864.954          57.000    20263919.715    79520543.815          52.000  
G03  22374505.854   117579154.281          42.000    22374517.558    91620303.751          47.000    22374520.310    87802869.667          48.000  
G07  22755254.510   119579525.384          41.000    22755271.075    93178826.491          43.000                                                  
G08  24128836.227   126797997.597          38.000    24128844.554    98803732.455          24.000    24128846.252    94686949.764          42.000  
G14  20908457.143   109874807.695          45.000    20908459.841    85616787.513          43.000    20908464.898    82049465.237          52.000  
G17  22259962.343   116977091.054          45.000    22259965.488    91151088.280          50.000                                                  
G21  22580386.822   118661099.968          44.000    22580388.198    92463366.812          35.000                                                  
G30  22083931.096   116051882.942          45.000    22083939.047    90430082.303          50.000    22083941.710    86662179.408          48.000  
E02  24618183.585   129369502.706          46.000    24618187.302    99127390.325          50.000    24618190.732    96607212.728          48.000  
E10  26483024.055   139169506.258          40.000    26483029.380   106636550.488          45.000    26483032.668   103925482.498          43.000  
E11  23979714.853   126014622.370          44.000    23979714.692    96556860.095          47.000    23979717.962    94102061.461          45.000  
E24  26848611.953   141090239.712          39.000    26848632.431   108108097.427          45.000    26848637.220   105359595.248          42.000  
E25  23503850.370   123513641.468          48.000    23503854.516    94640378.978          53.000    23503857.822    92234286.535          51.000  
E34  26923842.327   141485895.439          38.000    26923860.410   108411418.434          42.000    26923864.967   105655222.014          40.000  
E36  23519607.239   123596804.308          48.000    23519612.528    94704294.827          53.000    23519615.905    92296598.218          50.000  
> 2023 02 16 09 21 28.0000000  0 37                     
R11  20379622.247          51.000    20379633.165          52.000  
R12  19613553.717          53.000    19613562.597          53.000  
R13  22878580.217          34.000    22878592.082          38.000  
R21  21813507.860          49.000    21813516.741          47.000  
R22  19775706.952          53.000    19775714.385          54.000  
C01  37110394.507   193243537.878          44.000    37110400.832   149428031.536          47.000    37110401.744   157026355.432          44.000  
C02  38347222.572   199684010.543          40.000    38347226.521   154408187.928          45.000    38347228.344   162259617.379          43.000  
C03  36932512.636   192317272.920          45.000    36932516.692   148711781.249          48.000    36932517.371   156273440.836          46.000  
C04  38127425.066   198539480.661          41.000    38127431.070   153523290.011          45.000    38127430.963   161329555.474          43.000  
C07  36076770.469   187861263.694          46.000    36076769.522   145266275.895          50.000    36076768.343   152652681.317          49.000  
C08  38123880.281   198521332.639          40.000    38123889.894   153509473.904          45.000    38123886.124   161314987.969          43.000  
C09  38948280.360   202813846.876          37.000    38948296.264   156828574.622          41.000    38948291.117   164802886.913          38.000  
C10  36700725.855   191110397.603          45.000    36700728.661   147778734.621          49.000    36700726.910   155292888.803          47.000  
C13  38875923.808   202437362.247          41.000    38875945.251   156537612.321          42.000    38875940.301   164497098.257          41.000  
C24  24786944.070   129072153.583          43.000                                                    24786949.448   104881725.592          45.000  
C26  22251193.710   115867893.427          49.000                                                    22251199.589    94152219.271          52.000  
C29  24301114.766   126542493.124          44.000                                                    24301120.859   102826250.673          45.000  
C35  21818942.902   113617296.567          50.000                                                    21818947.745    92323527.478          52.000  
C38  37202476.459   193723402.540          47.000                                                    37202482.874   157416302.459          48.000  
C40  36285543.163   188948444.611          48.000                                                    36285546.898   153536159.514          51.000  
C44  23957074.622   124751005.199          45.000                                                    23957082.181   101370520.311          46.000  
C45  23520525.010   122477516.218          47.000                                                    23520528.566    99523024.535          49.000  
G01  20264227.349   106489660.155          48.000    20264231.780    82979143.901          57.000    20264232.048    79521769.475          52.000  
G03  22374026.875   117576636.988          42.000    22374038.508    91618342.236          47.000    22374041.259    87800989.879          48.000  
G07  22755842.437   119582614.366          41.000    22755858.912    93181233.459          42.000                                                  
G08  24129262.618   126800238.818          38.000    24129271.017    98805478.859          25.000    24129272.768    94688623.400          42.000  
G14  20908092.954   109872893.883          45.000    20908095.670    85615296.231          43.000    20908100.692    82048036.096          52.000  
G17  22259716.394   116975798.312          45.000    22259719.485    91150080.953          50.000                                                  
G21  22580955.003   118664085.966          44.000    22580956.415    92465693.563          35.000                                                  
G30  22084244.233   116053528.279          45.000    22084252.149    90431364.376          50.000    22084254.775    86663408.064          48.000  
E02  24617821.147   129367597.932          46.000    24617824.864    99125930.823          50.000    24617828.259    96605790.330          48.000  
E10  26483500.426   139172009.211          40.000    26483505.679   106638468.339          45.000    26483508.931   103927351.586          43.000  
E11  23980046.538   126016365.597          44.000    23980046.413    96558195.814          47.000    23980049.665    94103363.210          45.000  
E24  26849081.801   141092708.384          39.000    26849102.315   108109988.965          45.000    26849106.979   105361438.691          42.000  
E25  23503935.177   123514087.574          48.000    23503939.429    94640720.796          53.000    23503942.717    92234619.658          51.000  
E34  26923386.399   141483498.890          38.000    26923404.321   108409582.117          42.000    26923408.896   105653432.403          40.000  
E36  23519495.361   123596216.145          47.000    23519500.597    94703844.159          53.000    23519503.974    92296159.005          50.000  
> 2023 02 16 09 21 29.0000000  0 37                     
R11  20380201.239          52.000    20380212.139          52.000  
R12  19613303.336          53.000    19613312.109          53.000  
R13  22877841.422          34.000    22877853.108          38.000  
R21  21814049.470          49.000    21814058.315          47.000  
R22  19775876.493          53.000    19775883.784          54.000  
C01  37110386.609   193243496.414          45.000    37110392.881   149427999.469          47.000    37110393.828   157026321.746          44.000  
C02  38347219.159   199683992.722          40.000    38347223.090   154408174.154          45.000    38347224.931   162259602.895          43.000  
C03  36932503.505   192317225.544          45.000    36932507.597   148711744.622          48.000    36932508.258   156273402.342          46.000  
C04  38127420.152   198539454.994          41.000    38127426.174   153523270.169          45.000    38127426.031   161329534.623          43.000  
C07  36076702.888   187860911.685          47.000    36076701.941   145266003.708          50.000    36076700.744   152652395.290          49.000  
C08  38123578.902   198519763.422          40.000    38123588.480   153508260.495          45.000    38123584.781   161313712.857          43.000  
C09  38948632.040   202815680.145          37.000    38948648.176   156829992.222          41.000    38948643.244   164804376.565          38.000  
C10  36700628.005   191109887.789          45.000    36700630.739   147778340.396          49.000    36700628.970   155292474.525          47.000  
C13  38875640.173   202435885.698          42.000    38875661.777   156536470.568          42.000    38875656.666   164495898.456          41.000  
C24  24786499.667   129069839.663          43.000                                                    24786505.064   104879845.349          45.000  
C26  22251219.727   115868028.813          49.000                                                    22251225.606    94152329.286          52.000  
C29  24301521.733   126544612.427          43.000                                                    24301527.880   102827972.780          45.000  
C35  21819027.423   113617736.600          50.000                                                    21819032.247    92323885.041          52.000  
C38  37202226.096   193722098.614          47.000                                                    37202232.458   157415242.912          49.000  
C40  36285469.989   188948063.137          48.000                                                    36285473.617   153535849.533          51.000  
C44  23956766.113   124749398.461          45.000                                                    23956773.636   101369214.706          46.000  
C45  23521071.355   122480361.164          47.000                                                    23521074.929    99525336.273          49.000  
G01  20264539.788   106491301.970          48.000    20264544.220    82980423.238          57.000    20264544.470    79522995.508          52.000  
G03  22373547.896   117574120.014          42.000    22373559.528    91616380.969          47.000    22373562.316    87799110.345          48.000  
G07  22756430.238   119585703.478          41.000    22756446.767    93183640.524          42.000                                                  
G08  24129688.741   126802480.002          38.000    24129697.496    98807225.236          25.000    24129699.248    94690297.014          42.000  
G14  20907728.837   109870980.411          46.000    20907731.535    85613805.217          43.000    20907736.557    82046607.203          52.000  
G17  22259470.409   116974505.626          45.000    22259473.483    91149073.667          50.000                                                  
G21  22581523.256   118667072.049          44.000    22581524.632    92468020.381          35.000                                                  
G30  22084557.459   116055174.061          45.000    22084565.339    90432646.802          50.000    22084567.966    86664637.053          48.000  
E02  24617458.710   129365693.326          46.000    24617462.409    99124471.449          50.000    24617465.840    96604368.061          48.000  
E10  26483976.635   139174512.172          40.000    26483981.942   106640386.197          45.000    26483985.194   103929220.684          43.000  
E11  23980378.240   126018108.985          44.000    23980378.205    96559531.659          47.000    23980381.385    94104665.102          45.000  
E24  26849551.721   141095177.201          39.000    26849572.199   108111880.632          45.000    26849576.827   105363282.254          42.000  
E25  23504020.126   123514534.007          48.000    23504024.379    94641062.869          53.000    23504027.667    92234953.035          51.000  
E34  26922930.774   141481102.499          38.000    26922948.215   108407745.948          42.000    26922952.878   105651642.912          40.000  
E36  23519383.519   123595628.287          48.000    23519388.754    94703393.720          53.000    23519392.096    92295720.024          50.000  
> 2023 02 16 09 21 30.0000000  0 37                     
R11  20380780.535          52.000    20380791.399          52.000  
R12  19613053.205          53.000    19613061.907          53.000  
R13  22877102.699          34.000    22877114.421          38.000  
R21  21814591.438          50.000    21814600.033          47.000  
R22  19776046.267          53.000    19776053.414          54.000  
C01  37110378.907   193243455.772          45.000    37110385.108   149427968.048          47.000    37110385.983   157026288.733          44.000  
C02  38347215.800   199683975.717          40.000    38347219.856   154408161.011          45.000    38347221.696   162259589.075          43.000  
C03  36932494.553   192317178.991          45.000    36932498.591   148711708.630          48.000    36932499.306   156273364.518          46.000  
C04  38127415.381   198539430.150          41.000    38127421.349   153523250.964          45.000    38127421.260   161329514.444          43.000  
C07  36076635.504   187860560.487          47.000    36076634.539   145265732.140          50.000    36076633.342   152652109.916          49.000  
C08  38123277.845   198518195.116          40.000    38123287.297   153507047.786          45.000    38123283.527   161312438.482          43.000  
C09  38948983.846   202817514.224          37.000    38949000.285   156831410.430          41.000    38948995.371   164805866.913          38.000  
C10  36700530.225   191109378.772          45.000    36700533.049   147777946.803          49.000    36700531.208   155292060.924          47.000  
C13  38875356.842   202434410.057          42.000    38875378.427   156535329.524          42.000    38875373.299   164494699.374          41.000  
C24  24786055.426   129067526.917          43.000                                                    24786060.911   104877966.052          45.000  
C26  22251246.013   115868165.557          49.000                                                    22251251.856    94152440.404          52.000  
C29  24301928.825   126546732.550          43.000                                                    24301935.061   102829695.554          45.000  
C35  21819112.122   113618177.621          50.000                                                    21819116.946    92324243.414          52.000  
C38  37201975.894   193720795.636          47.000                                                    37201982.238   157414184.142          48.000  
C40  36285396.905   188947682.449          49.000                                                    36285400.533   153535540.197          51.000  
C44  23956457.855   124747792.722          45.000                                                    23956465.235   101367909.919          46.000  
C45  23521617.861   122483207.189          47.000                                                    23521621.489    99527648.892          49.000  
G01  20264852.389   106492945.120          48.000    20264856.892    82981703.615          57.000    20264857.142    79524222.538          53.000  
G03  22373069.131   117571604.262          42.000    22373080.782    91614420.656          47.000    22373083.587    87797231.705          48.000  
G07  22757018.219   119588793.611          41.000    22757034.819    93186048.385          42.000                                                  
G08  24130115.096   126804722.047          38.000    24130124.173    98808972.284          25.000    24130125.781    94691971.264          42.000  
G14  20907364.935   109869068.151          46.000    20907367.651    85612315.146          43.000    20907372.672    82045179.221          52.000  
G17  22259224.496   116973213.855          45.000    22259227.676    91148067.093          50.000                                                  
G21  22582091.705   118670059.071          44.000    22582093.063    92470347.928          35.000                                                  
G30  22084870.917   116056821.143          45.000    22084878.779    90433930.238          50.000    22084881.370    86665867.013          48.000  
E02  24617096.487   129363789.761          45.000    24617100.168    99123012.878          51.000    24617103.599    96602946.572          48.000  
E10  26484453.023   139177016.017          40.000    26484458.420   106642304.721          45.000    26484461.654   103931090.430          43.000  
E11  23980710.157   126019853.427          44.000    23980710.140    96560868.303          47.000    23980713.320    94105967.758          45.000  
E24  26850021.801   141097647.052          39.000    26850042.244   108113773.083          45.000    26850046.890   105365126.587          41.000  
E25  23504105.272   123514981.648          48.000    23504109.560    94641405.863          53.000    23504112.866    92235287.315          51.000  
E34  26922475.257   141478707.153          38.000    26922492.287   108405910.560          42.000    26922497.093   105649854.197          40.000  
E36  23519271.837   123595041.614          47.000    23519277.109    94702944.200          53.000    23519280.468    92295281.927          50.000  
> 2023 02 16 09 21 31.0000000  0 37                     
R11  20381359.777          52.000    20381370.677          52.000  
R12  19612803.092          53.000    19612811.759          53.000  
R13  22876364.154          34.000    22876375.644          37.000  
R21  21815132.941          50.000    21815141.679          46.000  
R22  19776215.987          53.000    19776223.027          53.000  
C01  37110371.063   193243414.598          44.000    37110377.245   149427936.215          47.000    37110378.014   157026255.276          44.000  
C02  38347212.440   199683958.168          40.000    38347216.479   154408147.439          45.000    38347218.301   162259574.827          43.000  
C03  36932485.600   192317131.896          45.000    36932489.514   148711672.223          48.000    36932490.246   156273326.255          46.000  
C04  38127410.521   198539404.786          41.000    38127416.489   153523231.349          45.000    38127416.328   161329493.829          43.000  
C07  36076567.888   187860208.748          47.000    36076567.030   145265460.160          50.000    36076565.797   152651824.094          49.000  
C08  38122976.662   198516626.379          40.000    38122986.008   153505834.766          45.000    38122982.291   161311163.778          43.000  
C09  38949335.419   202819347.755          37.000    38949352.484   156832828.219          41.000    38949347.409   164807356.792          38.000  
C10  36700432.339   191108869.171          45.000    36700435.180   147777552.752          49.000    36700433.322   155291646.828          47.000  
C13  38875073.403   202432933.970          41.000    38875094.810   156534188.136          42.000    38875089.771   164493499.959          42.000  
C24  24785611.327   129065213.992          43.000                                                    24785616.723   104876086.617          45.000  
C26  22251272.298   115868302.321          49.000                                                    22251278.105    94152551.533          52.000  
C29  24302336.006   126548852.130          43.000                                                    24302342.135   102831417.886          45.000  
C35  21819196.750   113618618.297          50.000                                                    21819201.556    92324601.495          52.000  
C38  37201725.513   193719492.259          47.000                                                    37201731.910   157413125.047          49.000  
C40  36285323.678   188947301.194          48.000                                                    36285327.341   153535230.401          51.000  
C44  23956149.418   124746186.629          45.000                                                    23956156.798   101366604.842          46.000  
C45  23522164.403   122486052.944          47.000                                                    23522168.031    99529961.284          49.000  
G01  20265165.061   106494588.271          48.000    20265169.564    82982983.992          57.000    20265169.832    79525449.564          52.000  
G03  22372590.348   117569088.319          42.000    22372601.999    91612460.192          47.000    22372604.822    87795352.940          48.000  
G07  22757606.020   119591883.353          41.000    22757622.799    93188455.945          42.000                                                  
G08  24130541.433   126806963.567          38.000    24130550.742    98810718.918          25.000    24130552.261    94693645.126          42.000  
G14  20907001.068   109867155.736          45.000    20907003.712    85610824.953          43.000    20907008.751    82043751.110          52.000  
G17  22258978.546   116971921.624          45.000    22258981.763    91147060.164          50.000                                                  
G21  22582659.940   118673045.665          44.000    22582661.406    92472675.142          35.000                                                  
G30  22085184.340   116058468.182          45.000    22085192.220    90435213.640          50.000    22085194.775    86667096.931          48.000  
E02  24616734.175   129361885.867          46.000    24616737.874    99121554.055          51.000    24616741.251    96601524.835          48.000  
E10  26484929.358   139179519.359          40.000    26484934.790   106644222.862          45.000    26484937.935   103932959.800          43.000  
E11  23981042.057   126021597.510          44.000    23981042.039    96562204.687          47.000    23981045.255    94107270.165          45.000  
E24  26850491.667   141100116.558          39.000    26850512.288   108115665.270          45.000    26850516.898   105366970.665          42.000  
E25  23504190.418   123515429.125          48.000    23504194.706    94641748.732          53.000    23504197.994    92235621.463          50.000  
E34  26922019.794   141476311.461          38.000    26922036.323   108404074.911          42.000    26922041.308   105648065.222          40.000  
E36  23519160.120   123594454.763          47.000    23519165.409    94702494.533          53.000    23519168.787    92294843.694          50.000  
> 2023 02 16 09 21 32.0000000  0 37                     
R11  20381939.251          52.000    20381950.044          52.000  
R12  19612553.194          53.000    19612561.807          53.000  
R13  22875625.985          34.000    22875637.028          37.000  
R21  21815674.694          50.000    21815683.306          47.000  
R22  19776385.814          53.000    19776392.783          53.000  
C01  37110363.200   193243373.575          44.000    37110369.383   149427904.484          47.000    37110370.187   157026221.943          44.000  
C02  38347209.188   199683940.792          40.000    38347213.209   154408134.000          45.000    38347214.924   162259560.700          43.000  
C03  36932476.541   192317084.976          44.000    36932480.543   148711635.935          48.000    36932481.204   156273288.126          46.000  
C04  38127405.660   198539379.578          41.000    38127411.682   153523211.850          45.000    38127411.503   161329473.341          43.000  
C07  36076500.397   187859857.173          46.000    36076499.539   145265188.295          50.000    36076498.270   152651538.413          49.000  
C08  38122675.623   198515057.938          40.000    38122684.736   153504621.935          45.000    38122681.055   161309889.285          43.000  
C09  38949687.081   202821181.445          37.000    38949704.611   156834246.115          41.000    38949699.536   164808846.797          38.000  
C10  36700334.488   191108359.723          45.000    36700337.365   147777158.808          49.000    36700335.489   155291232.851          47.000  
C13  38874789.875   202431458.119          41.000    38874811.497   156533046.919          42.000    38874806.333   164492300.702          41.000  
C24  24785167.299   129062901.580          43.000                                                    24785172.660   104874207.589          45.000  
C26  22251298.708   115868439.797          49.000                                                    22251304.516    94152663.242          52.000  
C29  24302743.188   126550971.869          43.000                                                    24302749.174   102833140.343          45.000  
C35  21819281.431   113619059.307          50.000                                                    21819286.273    92324959.854          52.000  
C38  37201475.240   193718189.185          47.000                                                    37201481.691   157412066.192          49.000  
C40  36285250.451   188946920.075          48.000                                                    36285254.167   153534920.704          51.000  
C44  23955841.052   124744580.882          45.000                                                    23955848.432   101365300.043          46.000  
C45  23522710.963   122488899.123          46.000                                                    23522714.662    99532274.026          49.000  
G01  20265477.876   106496232.096          47.000    20265482.379    82984264.894          57.000    20265482.612    79526677.098          52.000  
G03  22372111.834   117566572.924          42.000    22372123.324    91610500.158          47.000    22372126.165    87793474.570          48.000  
G07  22758193.822   119594973.450          40.000    22758210.851    93190863.783          42.000                                                  
G08  24130968.091   126809205.262          38.000    24130977.347    98812465.692          25.000    24130978.723    94695319.120          42.000  
G14  20906637.254   109865243.858          45.000    20906639.899    85609335.177          43.000    20906644.920    82042323.417          52.000  
G17  22258732.579   116970629.642          45.000    22258735.903    91146053.427          50.000                                                  
G21  22583228.283   118676032.537          43.000    22583229.801    92475002.575          35.000                                                  
G30  22085497.905   116060115.863          45.000    22085505.768    90436497.540          50.000    22085508.305    86668327.340          48.000  
E02  24616371.970   129359982.346          46.000    24616375.669    99120095.506          50.000    24616379.028    96600103.375          48.000  
E10  26485405.782   139182022.910          40.000    26485411.178   106646141.161          45.000    26485414.377   103934829.339          43.000  
E11  23981373.992   126023341.975          43.000    23981373.992    96563541.344          47.000    23981377.190    94108572.846          44.000  
E24  26850961.641   141102586.442          39.000    26850982.333   108117557.740          45.000    26850986.979   105368815.018          42.000  
E25  23504275.671   123515877.139          48.000    23504279.977    94642092.014          53.000    23504283.265    92235956.019          50.000  
E34  26921564.312   141473916.129          38.000    26921580.484   108402239.549          42.000    26921585.559   105646276.515          40.000  
E36  23519048.439   123593868.431          47.000    23519053.835    94702045.265          53.000    23519057.195    92294405.846          50.000  
> 2023 02 16 09 21 33.0000000  0 37                     
R11  20382518.619          52.000    20382529.465          52.000  
R12  19612303.296          53.000    19612311.873          53.000  
R13  22874886.904          34.000    22874898.215          37.000  
R21  21816216.375          50.000    21816224.845          46.000  
R22  19776555.534          53.000    19776562.485          53.000  
C01  37110355.266   193243332.061          44.000    37110361.413   149427872.389          47.000    37110362.235   157026188.200          44.000  
C02  38347205.811   199683922.912          40.000    38347209.724   154408120.172          45.000    38347211.511   162259546.159          43.000  
C03  36932467.499   192317037.548          45.000    36932471.448   148711599.258          48.000    36932472.109   156273249.584          46.000  
C04  38127400.728   198539353.877          41.000    38127406.661   153523191.980          45.000    38127406.572   161329452.459          43.000  
C07  36076432.816   187859505.091          46.000    36076431.905   145264916.045          50.000    36076430.654   152651252.322          49.000  
C08  38122374.494   198513489.100          40.000    38122383.303   153503408.825          45.000    38122379.783   161308614.479          43.000  
C09  38950038.940   202823014.632          37.000    38950056.720   156835663.627          41.000    38950051.556   164810336.388          38.000  
C10  36700236.548   191107849.749          45.000    36700239.407   147776764.464          49.000    36700237.567   155290818.458          47.000  
C13  38874506.383   202429981.881          41.000    38874527.898   156531905.416          42.000    38874522.769   164491101.157          41.000  
C24  24784723.308   129060589.021          43.000                                                    24784728.561   104872328.452          45.000  
C26  22251325.155   115868577.315          49.000                                                    22251330.944    94152774.988          52.000  
C29  24303150.333   126553091.108          43.000                                                    24303156.194   102834862.403          45.000  
C35  21819366.076   113619500.000          50.000                                                    21819370.919    92325317.949          52.000  
C38  37201225.020   193716885.747          47.000                                                    37201231.363   157411007.042          48.000  
C40  36285177.188   188946538.433          48.000                                                    36285180.887   153534610.588          51.000  
C44  23955532.615   124742974.830          45.000                                                    23955539.995   101363994.992          46.000  
C45  23523257.487   122491745.078          46.000                                                    23523261.222    99534586.579          48.000  
G01  20265790.674   106497875.950          48.000    20265795.194    82985545.822          57.000    20265795.445    79527904.653          52.000  
G03  22371633.141   117564057.409          42.000    22371644.630    91608540.028          47.000    22371647.489    87791596.121          48.000  
G07  22758781.587   119598063.204          40.000    22758798.831    93193271.354          42.000                                                  
G08  24131394.625   126811446.488          38.000    24131403.827    98814212.099          25.000    24131405.114    94696992.754          42.000  
G14  20906273.352   109863331.868          45.000    20906276.050    85607845.318          43.000    20906281.089    82040895.633          52.000  
G17  22258486.523   116969337.249          45.000    22258489.972    91145046.368          50.000                                                  
G21  22583796.392   118679019.031          43.000    22583798.126    92477329.711          35.000                                                  
G30  22085811.471   116061763.532          44.000    22085819.315    90437781.434          50.000    22085821.853    86669557.736          48.000  
E02  24616009.657   129358078.532          45.000    24616013.374    99118636.741          50.000    24616016.769    96598681.697          48.000  
E10  26485882.080   139184526.004          40.000    26485887.495   106648059.118          45.000    26485890.783   103936698.530          43.000  
E11  23981705.909   126025086.153          43.000    23981705.891    96564877.790          47.000    23981709.072    94109875.314          45.000  
E24  26851431.524   141105056.018          39.000    26851452.324   108119449.983          45.000    26851456.970   105370659.147          42.000  
E25  23504360.960   123516325.021          48.000    23504365.195    94642435.198          53.000    23504368.500    92236290.478          50.000  
E34  26921108.527   141471520.501          38.000    26921124.556   108400403.956          42.000    26921129.756   105644487.586          40.000  
E36  23518936.775   123593281.940          47.000    23518942.243    94701595.878          53.000    23518945.603    92293967.889          50.000  
