     3.04           OBSERVATION DATA    M: Mixed            RINEX VERSION / TYPE
RTKCONV demo5 b34g                      20230216 093726 UTC PGM / RUN BY / DATE 
format: RTCM 3                                              COMMENT             
log: C:\Users\Salmos\Desktop\logdata\rtcm3.3\rover.rtcm3    COMMENT             
0001                                                        MARKER NAME         
                                                            MARKER NUMBER       
                                                            MARKER TYPE         
                                                            OBSERVER / AGENCY   
                                                            REC # / TYPE / VERS 
                                                            ANT # / TYPE        
 -2846121.6407  4661588.7968  3282939.9218                  APPROX POSITION XYZ 
        0.0000        0.0000        0.0000                  ANTENNA: DELTA H/E/N
G    8 C1C L1C D1C S1C C5Q L5Q D5Q S5Q                      SYS / # / OBS TYPES 
E    8 C1X L1X D1X S1X C5Q L5Q D5Q S5Q                      SYS / # / OBS TYPES 
C    4 C2I L2I D2I S2I                                      SYS / # / OBS TYPES 
  2023    02    16    09    20   38.0000000     GPS         TIME OF FIRST OBS   
  2023    02    16    09    30   37.0000000     GPS         TIME OF LAST OBS    
G L1C                                                       SYS / PHASE SHIFT   
G L5Q  0.00000                                              SYS / PHASE SHIFT   
E L1X  0.00000                                              SYS / PHASE SHIFT   
E L5Q  0.00000                                              SYS / PHASE SHIFT   
C L2I                                                       SYS / PHASE SHIFT   
  0                                                         GLONASS SLOT / FRQ #
 C1C    0.000 C1P    0.000 C2C    0.000 C2P    0.000        GLONASS COD/PHS/BIS 
                                                            END OF HEADER       
> 2023 02 16 09 20 38.0000000  0 36                     
G01  20248742.500   106407862.9691      -1615.944          47.438    20248735.938    79460395.6291      -1206.701          47.000  
G03  22397628.750   117700459.9471       2534.935          42.313    22397632.062    87893153.0261       1892.921          44.250  
G07  22726301.312   119427387.3371      -3080.513          41.813                                                                  
G08  24107658.313   126686583.0001      -2240.676          38.563    24107658.625    94603605.1261      -1673.192          41.750  
G14  20926643.312   109970267.2381       1932.328          44.875    20926640.063    82120645.1311       1443.015          47.500  
G17  22272430.813   117042436.6361       1296.422          44.438                                                                  
G19  24558203.938   129054236.2621       2367.260          37.625                                                                  
G21  22552563.000   118514512.3551      -2980.802          43.938                                                                  
G30  22068825.437   115972437.4631      -1621.568          44.938    22068825.750    86602780.4121      -1210.899          46.750  
E02  24636184.937   129464042.1541       1914.734          45.250    24636184.875    96677701.3811       1429.843          44.125  
E10  26459550.938   139045868.7091      -2501.242          43.313    26459553.187   103832959.3701      -1867.796          44.063  
E11  23963383.438   125928430.4531      -1733.538          43.938    23963380.250    94037451.7441      -1294.579          43.438  
E24  26825006.187   140966232.5561      -2459.053          39.938    26825025.375   105267110.3731      -1836.299          39.313  
E25  23499509.938   123490732.1531       -427.938          45.750    23499510.312    92217124.4591       -319.511          47.438  
E34  26946152.875   141603131.7191       2405.686          39.188    26946169.188   105742610.0681       1796.451          40.625  
E36  23525085.750   123625189.0311        604.910          45.938    23525088.313    92317521.9771        451.785          46.625  
C01  37110271.313   193242928.4261         40.837          44.625  
C02  38347340.938   199684668.6211         17.286          40.750  
C03  36932686.750   192318195.9751         46.541          45.375  
C04  38127094.375   198537786.7061         25.139          41.688  
C06  40148905.812   209065741.8491      -1743.248          35.500  
C07  36080126.875   187878692.2751        350.992          45.375  
C09  38930509.688   202721306.9701      -1834.328          38.375  
C10  36705703.187   191136231.0851        507.786          44.875  
C13  38889758.500   202509256.0251       1480.021          40.563  
C16  40106056.688   208842616.3081      -1700.993          34.000  
C19  25755246.188   134114486.1771       2135.091          41.375  
C20  25824549.500   134475225.6801        569.488          39.813  
C24  24809562.125   129189974.2031       2332.243          24.813  
C26  22250054.500   115861862.4351       -108.232          49.125  
C29  24280535.500   126435110.1341      -2120.052          44.500  
C35  21814789.000   113595335.5541       -431.560          48.813  
C38  37214644.188   193786454.3951       1309.891          45.875  
C40  36289124.125   188967002.4991        379.372          46.688  
C44  23972723.250   124832306.9811       1615.139          46.000  
C45  23492824.812   122333238.6661      -2832.032          45.063  
> 2023 02 16 09 20 39.0000000  0 36                     
G01  20249050.000   106409479.474       -1616.571          47.625    20249043.375    79461602.760       -1207.115          47.000  
G03  22397146.313   117697925.513        2534.460          42.313    22397149.813    87891260.462        1892.634          44.313  
G07  22726887.625   119430468.267       -3080.905          41.875                                                                  
G08  24108084.750   126688823.969       -2240.857          38.563    24108085.187    94605278.560       -1673.243          41.875  
G14  20926275.500   109968335.374        1931.880          44.938    20926272.500    82119202.493        1442.725          47.688  
G17  22272183.938   117041140.532        1296.273          44.563                                                                  
G19  24557753.500   129051869.239        2367.141          37.688                                                                  
G21  22553130.375   118517493.458       -2980.943          43.938                                                                  
G30  22069134.250   115974059.590       -1622.142          45.063    22069134.625    86603991.732       -1211.342          47.000  
E02  24635820.813   129462127.825        1914.531          45.188    24635820.562    96676271.847        1429.638          44.063  
E10  26460027.063   139048370.254       -2501.433          43.250    26460029.313   103834827.415       -1867.950          44.125  
E11  23963713.188   125930164.476       -1733.899          43.438    23963710.063    94038746.606       -1294.750          43.250  
E24  26825474.250   140968692.138       -2459.333          39.875    26825493.312   105268947.040       -1836.630          39.250  
E25  23499590.937   123491160.535        -428.307          45.938    23499591.687    92217444.356        -319.851          47.188  
E34  26945695.250   141600726.333        2405.364          39.250    26945711.625   105740813.876        1796.311          40.625  
E36  23524970.625   123624584.550         604.580          46.000    23524973.125    92317070.573         451.438          46.375  
C01  37110264.313   193242887.976          40.736          44.500  
C02  38347337.000   199684651.887          16.877          40.750  
C03  36932677.187   192318149.626          46.594          45.250  
C04  38127089.375   198537761.994          24.940          41.875  
C06  40149240.438   209067485.234       -1743.252          35.500  
C07  36080059.563   187878341.564         350.900          45.438  
C09  38930861.687   202723141.555       -1834.443          38.313  
C10  36705605.812   191135723.564         507.806          44.750  
C13  38889474.688   202507776.368        1479.752          40.500  
C16  40106383.125   208844317.630       -1700.945          34.000  
C19  25754836.250   134112351.412        2134.972          41.500  
C20  25824440.188   134474656.723         569.073          39.813  
C24  24809114.375   129187642.8382       2331.992          24.688  
C26  22250075.312   115861971.255        -108.832          49.063  
C29  24280942.688   126437230.466       -2120.123          44.438  
C35  21814872.062   113595767.474        -431.812          48.813  
C38  37214392.875   193785144.848        1309.646          45.875  
C40  36289051.438   188966623.384         379.270          46.625  
C44  23972413.313   124830692.185        1614.891          45.938  
C45  23493368.563   122336071.119       -2832.359          45.063  
> 2023 02 16 09 20 40.0000000  0 36                     
G01  20249357.625   106411096.556       -1616.893          47.563    20249351.000    79462810.320       -1207.400          46.875  
G03  22396664.062   117695391.531        2534.278          42.500    22396667.375    87889368.223        1892.444          44.313  
G07  22727473.813   119433549.436       -3080.773          41.813                                                                  
G08  24108510.875   126691065.000       -2240.677          38.563    24108511.687    94606952.081       -1673.233          41.750  
G14  20925907.812   109966403.918        1931.681          45.000    20925904.938    82117760.190        1442.488          47.438  
G17  22271937.500   117039844.551        1296.361          44.625                                                                  
G19  24557302.812   129049502.312        2367.329          37.750                                                                  
G21  22553697.750   118520474.685       -2980.811          44.250                                                                  
G30  22069442.750   115975682.256       -1622.444          45.125    22069443.187    86605203.460       -1211.559          46.813  
E02  24635456.437   129460213.760        1914.472          45.000    24635456.187    96674842.511        1429.585          44.063  
E10  26460502.875   139050871.910       -2501.181          43.063    26460505.188   103836695.544       -1867.785          44.000  
E11  23964043.313   125931898.731       -1733.886          43.750    23964040.187    94040041.679       -1294.779          43.250  
E24  26825942.750   140971151.949       -2459.438          40.000    26825961.625   105270783.873       -1836.543          39.375  
E25  23499672.500   123491589.353        -428.565          45.875    23499673.375    92217764.586        -320.017          47.313  
E34  26945237.750   141598321.211        2405.344          39.438    26945253.937   105739017.892        1796.235          40.625  
E36  23524855.625   123623980.458         604.335          46.000    23524858.125    92316619.472         451.297          46.438  
C01  37110256.250   193242847.579          40.630          44.563  
C02  38347333.750   199684635.202          16.997          41.000  
C03  36932668.500   192318103.325          46.561          45.250  
C04  38127084.437   198537737.366          24.857          41.875  
C06  40149575.062   209069228.637       -1742.964          35.438  
C07  36079992.125   187877990.852         351.120          45.375  
C09  38931214.375   202724976.193       -1834.268          38.250  
C10  36705508.000   191135216.056         507.941          44.875  
C13  38889190.437   202506296.854        1479.942          40.500  
C16  40106709.625   208846018.887       -1700.824          34.000  
C19  25754425.938   134110216.864        2134.966          41.500  
C20  25824331.063   134474088.242         568.738          39.750  
C24  24808667.000   129185312.6582       2331.160          24.563  
C26  22250096.688   115862080.691        -109.244          49.000  
C29  24281349.750   126439350.824       -2119.921          44.438  
C35  21814955.312   113596199.635        -431.840          48.813  
C38  37214141.750   193783835.498        1309.709          45.813  
C40  36288978.750   188966244.279         379.537          46.563  
C44  23972103.438   124829077.646        1614.885          45.875  
C45  23493912.375   122338903.866       -2832.446          45.188  
> 2023 02 16 09 20 41.0000000  0 36                     
G01  20249665.562   106412713.370       -1616.516          47.625    20249658.937    79464017.667       -1207.149          47.250  
G03  22396181.938   117692857.071        2534.877          42.500    22396185.062    87887475.616        1892.810          44.188  
G07  22728060.313   119436629.986       -3080.142          41.563                                                                  
G08  24108937.375   126693305.290       -2239.760          38.625    24108938.000    94608625.007       -1672.656          41.750  
G14  20925540.312   109964472.035        1932.260          45.063    20925537.375    82116317.550        1442.878          47.500  
G17  22271690.750   117038547.849        1297.121          44.750                                                                  
G19  24556852.688   129047134.649        2368.015          37.875                                                                  
G21  22554264.875   118523455.241       -2980.181          44.375                                                                  
G30  22069751.688   115977304.606       -1622.122          45.063    22069751.875    86606414.945       -1211.260          46.813  
E02  24635092.250   129458299.091        1915.227          44.875    24635091.875    96673412.737        1430.097          44.250  
E10  26460978.875   139053372.833       -2500.312          43.000    26460981.125   103838563.109       -1867.235          44.063  
E11  23964373.188   125933632.405       -1733.336          43.750    23964370.125    94041336.295       -1294.320          43.188  
E24  26826411.000   140973611.223       -2458.803          40.063    26826429.750   105272620.260       -1836.066          39.375  
E25  23499754.562   123492017.709        -428.037          46.000    23499755.125    92218084.464        -319.648          47.375  
E34  26944779.687   141595915.481        2406.302          39.688    26944796.125   105737221.411        1796.718          40.438  
E36  23524740.813   123623375.910         605.009          46.125    23524743.188    92316168.034         451.763          46.625  
C01  37110247.937   193242806.372          41.497          44.625  
C02  38347330.625   199684617.629          17.740          40.750  
C03  36932660.063   192318056.182          47.069          45.250  
C04  38127080.187   198537711.869          25.534          41.625  
C06  40149909.937   209070971.175       -1742.102          35.438  
C07  36079924.625   187877639.340         351.952          45.438  
C09  38931566.063   202726810.035       -1833.433          38.250  
C10  36705410.313   191134707.730         508.812          44.813  
C13  38888906.500   202504816.576        1480.677          40.563  
C16  40107035.937   208847719.225       -1700.009          33.875  
C19  25754016.250   134108081.627        2135.621          41.563  
C20  25824221.562   134473519.372         569.253          39.875  
C24  24808217.875   129182982.0672       2331.131          24.438  
C26  22250117.438   115862189.851        -108.910          49.063  
C29  24281757.187   126441470.395       -2119.108          44.563  
C35  21815037.938   113596631.168        -431.133          48.938  
C38  37213889.937   193782525.471        1310.432          45.813  
C40  36288905.500   188965864.363         380.425          46.500  
C44  23971792.938   124827462.468        1615.518          45.813  
C45  23494456.750   122341736.092       -2831.852          45.250  
> 2023 02 16 09 20 42.0000000  0 36                     
G01  20249973.063   106414330.427       -1617.822          47.625    20249966.563    79465225.212       -1208.125          47.188  
G03  22395699.687   117690322.718        2533.643          42.438    22395702.875    87885583.091        1892.063          44.250  
G07  22728646.438   119439710.449       -3081.104          41.750                                                                  
G08  24109363.875   126695545.309       -2240.528          38.625    24109364.500    94610297.727       -1673.141          41.875  
G14  20925172.750   109962540.262        1931.042          45.063    20925169.937    82114874.982        1442.101          47.688  
G17  22271443.813   117037250.949        1296.300          44.750                                                                  
G19  24556402.187   129044766.691        2367.313          37.813                                                                  
G21  22554832.125   118526435.636       -2980.993          44.438                                                                  
G30  22070060.438   115978927.152       -1623.303          45.125    22070060.875    86607626.590       -1212.154          47.063  
E02  24634728.000   129456384.328        1914.075          44.875    24634727.500    96671982.881        1429.386          44.188  
E10  26461454.750   139055873.507       -2501.215          43.250    26461457.000   103840430.469       -1867.857          44.188  
E11  23964702.875   125935365.970       -1734.213          43.625    23964699.875    94042630.869       -1295.065          43.188  
E24  26826878.875   140976070.337       -2459.959          40.188    26826897.688   105274456.596       -1836.752          39.313  
E25  23499835.375   123492446.169        -429.199          46.313    23499836.563    92218404.426        -320.511          47.063  
E34  26944322.125   141593509.695        2405.100          39.563    26944338.375   105735424.867        1796.025          40.500  
E36  23524625.750   123622771.454         603.772          45.563    23524628.000    92315716.639         450.851          46.375  
C01  37110240.562   193242764.898          41.240          44.625  
C02  38347327.312   199684599.829          17.124          40.813  
C03  36932650.187   192318008.837          46.891          45.313  
C04  38127075.000   198537686.096          25.320          41.500  
C06  40150244.687   209072713.371       -1742.606          35.438  
C07  36079857.438   187877287.535         351.253          45.438  
C09  38931918.562   202728643.530       -1834.162          38.250  
C10  36705313.000   191134199.063         508.031          44.938  
C13  38888622.500   202503336.127        1479.921          40.688  
C16  40107362.500   208849419.328       -1700.308          33.875  
C19  25753606.312   134105946.262        2134.755          41.625  
C20  25824112.375   134472950.655         567.844          39.875  
C24  24807767.750   129180651.4742       2330.359          24.438  
C26  22250138.375   115862299.278        -110.258          49.125  
C29  24282164.187   126443589.643       -2119.820          44.625  
C35  21815120.875   113597062.591        -432.130          49.063  
C38  37213638.375   193781215.301        1309.474          45.750  
C40  36288832.625   188965484.114         379.610          46.500  
C44  23971483.000   124825847.198        1614.635          45.750  
C45  23495000.250   122344568.314       -2832.867          45.250  
> 2023 02 16 09 20 43.0000000  0 36                     
G01  20250280.875   106415948.558       -1618.074          47.500    20250274.312    79466433.559       -1208.313          47.000  
G03  22395217.313   117687789.290        2533.602          42.438    22395220.625    87883691.257        1891.887          44.125  
G07  22729232.687   119442791.602       -3081.000          41.813                                                                  
G08  24109789.875   126697785.861       -2240.296          38.625    24109790.812    94611970.860       -1673.030          41.875  
G14  20924805.125   109960609.414        1930.976          44.938    20924802.375    82113433.127        1441.936          47.438  
G17  22271197.188   117035954.673        1296.542          44.500                                                                  
G19  24555951.437   129042399.325        2367.656          37.875                                                                  
G21  22555399.250   118529416.685       -2980.825          44.313                                                                  
G30  22070369.187   115980550.749       -1623.548          45.125    22070369.750    86608838.995       -1212.379          46.875  
E02  24634363.562   129454470.362        1914.202          44.813    24634363.188    96670553.633        1429.406          44.063  
E10  26461930.500   139058374.756       -2500.900          43.125    26461932.812   103842298.288       -1867.654          44.063  
E11  23965033.125   125937100.329       -1734.024          43.625    23965029.937    94043926.012       -1295.000          43.375  
E24  26827347.250   140978530.244       -2459.700          40.313    26827365.875   105276293.509       -1836.723          39.438  
E25  23499917.813   123492875.560        -429.176          46.313    23499918.312    92218725.061        -320.550          47.313  
E34  26943864.687   141591104.641        2405.476          39.438    26943880.812   105733628.901        1796.094          40.563  
E36  23524510.938   123622167.884         603.698          45.625    23524513.250    92315265.951         450.833          46.375  
C01  37110232.563   193242723.956          41.234          44.563  
C02  38347323.625   199684582.571          17.229          40.875  
C03  36932641.438   192317962.008          47.099          45.250  
C04  38127069.562   198537660.959          25.247          41.688  
C06  40150579.188   209074455.974       -1742.403          35.375  
C07  36079789.687   187876936.289         351.503          45.563  
C09  38932270.875   202730477.611       -1833.814          38.250  
C10  36705215.125   191133690.948         508.399          45.000  
C13  38888338.000   202501856.282        1480.035          40.625  
C16  40107688.937   208851119.752       -1700.247          33.875  
C19  25753196.062   134103811.556        2134.880          41.688  
C20  25824003.500   134472382.926         567.821          39.938  
C24  24807323.000   129178321.8162       2329.787          24.438  
C26  22250160.000   115862409.810        -110.475          49.125  
C29  24282571.063   126445709.476       -2119.547          44.688  
C35  21815204.000   113597494.745        -431.981          49.063  
C38  37213387.187   193779905.805        1309.654          45.875  
C40  36288759.812   188965104.377         380.039          46.438  
C44  23971173.062   124824232.654        1614.675          45.813  
C45  23495544.437   122347401.337       -2832.902          45.250  
> 2023 02 16 09 20 44.0000000  0 36                     
G01  20250589.062   106417566.551       -1618.099          47.625    20250582.438    79467641.799       -1208.341          47.375  
G03  22394735.250   117685255.588        2533.708          42.500    22394738.562    87881799.215        1891.933          44.000  
G07  22729819.563   119445872.318       -3080.731          41.750                                                                  
G08  24110215.938   126700025.782       -2239.898          38.625    24110217.062    94613643.519       -1672.663          41.813  
G14  20924437.750   109958678.302        1931.126          45.063    20924434.875    82111991.055        1442.011          47.375  
G17  22270950.438   117034657.856        1296.830          44.438                                                                  
G19  24555501.125   129040031.382        2367.907          37.938                                                                  
G21  22555966.437   118532397.239       -2980.524          44.250                                                                  
G30  22070678.313   115982174.180       -1623.591          45.188    22070678.750    86610051.299       -1212.361          46.875  
E02  24633999.375   129452555.937        1914.386          45.063    24633999.000    96669124.028        1429.563          44.188  
E10  26462406.625   139060875.416       -2500.516          43.313    26462408.812   103844165.671       -1867.337          44.125  
E11  23965362.875   125938834.229       -1733.720          43.750    23965359.812    94045220.805       -1294.766          43.313  
E24  26827815.188   140980989.696       -2459.576          40.063    26827834.000   105278130.086       -1836.500          39.375  
E25  23499999.063   123493304.675        -429.140          46.375    23500000.000    92219045.503        -320.450          47.375  
E34  26943406.875   141588699.167        2405.627          39.438    26943423.000   105731832.609        1796.301          40.375  
E36  23524396.312   123621564.034         603.945          45.750    23524398.562    92314815.023         450.886          46.625  
C01  37110224.125   193242682.392          41.622          44.500  
C02  38347321.000   199684564.634          17.480          40.625  
C03  36932632.687   192317914.516          47.448          45.313  
C04  38127065.062   198537635.113          25.566          41.625  
C06  40150914.000   209076197.910       -1741.939          35.375  
C07  36079722.188   187876584.398         351.948          45.563  
C09  38932622.750   202732311.011       -1833.352          38.125  
C10  36705117.438   191133182.160         508.858          45.063  
C13  38888054.187   202500375.866        1480.458          40.563  
C16  40108014.875   208852819.549       -1699.756          33.813  
C19  25752786.187   134101676.400        2135.243          41.750  
C20  25823893.875   134471814.988         567.859          39.938  
C24  24806873.563   129175991.9232       2329.702          24.313  
C26  22250181.062   115862520.243        -110.630          49.125  
C29  24282978.313   126447828.644       -2119.107          44.625  
C35  21815286.687   113597926.438        -431.620          49.125  
C38  37213135.437   193778595.808        1310.008          45.875  
C40  36288686.687   188964724.000         380.484          46.500  
C44  23970862.625   124822617.655        1614.991          45.938  
C45  23496088.750   122350233.976       -2832.686          45.313  
> 2023 02 16 09 20 45.0000000  0 36                     
G01  20250896.937   106419185.013       -1619.209          47.688    20250890.250    79468850.405       -1209.089          47.250  
G03  22394253.312   117682722.138        2532.794          42.625    22394256.750    87879907.369        1891.374          44.188  
G07  22730405.313   119448953.128       -3081.462          41.625                                                                  
G08  24110642.562   126702265.602       -2240.414          38.875    24110643.688    94615316.141       -1673.051          41.938  
G14  20924070.562   109956747.483        1930.137          45.063    20924067.688    82110549.217        1441.390          47.750  
G17  22270703.625   117033361.043        1296.252          44.500                                                                  
G19  24555050.625   129037663.335        2367.436          38.125                                                                  
G21  22556533.937   118535377.814       -2981.153          44.125                                                                  
G30  22070987.250   115983797.990       -1624.567          45.125    22070987.875    86611263.903       -1213.155          47.063  
E02  24633635.438   129450641.619        1913.549          45.250    24633634.812    96667694.528        1429.085          44.250  
E10  26462882.500   139063376.054       -2501.024          43.250    26462884.687   103846033.028       -1867.748          44.188  
E11  23965692.688   125940568.296       -1734.545          43.563    23965689.687    94046515.711       -1295.352          43.250  
E24  26828283.312   140983449.312       -2460.181          39.875    26828302.000   105279966.761       -1837.098          39.313  
E25  23500080.937   123493734.085        -430.074          46.125    23500081.563    92219366.168        -321.136          47.063  
E34  26942949.438   141586293.775        2404.818          39.625    26942965.313   105730036.389        1795.700          40.375  
E36  23524281.312   123620960.445         602.962          45.813    23524283.750    92314364.288         450.248          46.563  
C01  37110216.812   193242640.745          41.319          44.438  
C02  38347317.000   199684546.643          17.340          40.750  
C03  36932623.437   192317866.970          47.083          45.125  
C04  38127060.062   198537609.093          25.469          41.625  
C06  40151248.125   209077939.693       -1742.280          35.438  
C07  36079654.750   187876232.407         351.455          45.563  
C09  38932974.875   202734144.317       -1833.877          38.188  
C10  36705020.000   191132673.237         508.448          45.000  
C13  38887770.250   202498895.504        1479.796          40.563  
C16  40108341.812   208854519.147       -1700.146          33.750  
C19  25752376.375   134099541.259        2134.534          41.750  
C20  25823785.000   134471247.398         566.883          39.938  
C24  24806426.875   129173662.139        2328.567          24.313  
C26  22250202.313   115862631.108        -111.621          49.188  
C29  24283385.250   126449947.733       -2119.655          44.688  
C35  21815369.750   113598358.234        -432.415          49.125  
C38  37212883.812   193777285.859        1309.290          45.750  
C40  36288613.875   188964343.467         379.922          46.500  
C44  23970552.500   124821002.742        1614.330          46.000  
C45  23496632.563   122353066.813       -2833.452          45.375  
> 2023 02 16 09 20 46.0000000  0 36                     
G01  20251205.125   106420804.932       -1620.277          47.875    20251198.375    79470060.094       -1209.941          47.063  
G03  22393771.188   117680190.009        2531.933          42.688    22393774.688    87878016.503        1890.662          44.063  
G07  22730991.625   119452035.064       -3082.058          41.625                                                                  
G08  24111068.875   126704506.399       -2241.035          38.813    24111069.875    94616989.461       -1673.426          41.938  
G14  20923703.125   109954817.966        1929.201          45.125    20923700.250    82109108.341        1440.640          47.438  
G17  22270457.062   117032065.242        1295.665          44.500                                                                  
G19  24554599.750   129035296.319        2367.042          37.938                                                                  
G21  22557101.000   118538359.451       -2981.770          44.063                                                                  
G30  22071296.312   115985423.254       -1625.549          45.000    22071297.000    86612477.543       -1213.852          46.813  
E02  24633271.188   129448728.485        1913.034          45.375    24633270.562    96666265.857        1428.515          44.063  
E10  26463358.375   139065877.648       -2501.796          43.375    26463360.562   103847901.126       -1868.173          44.000  
E11  23966023.000   125942303.482       -1735.233          43.438    23966020.000    94047811.458       -1295.879          43.313  
E24  26828751.687   140985909.984       -2460.939          40.000    26828770.375   105281804.267       -1837.618          39.438  
E25  23500163.000   123494164.810        -431.054          46.188    23500163.562    92219687.810        -321.846          47.313  
E34  26942492.125   141583889.505        2404.244          39.375    26942507.750   105728241.051        1795.216          40.375  
E36  23524166.625   123620358.178         602.103          45.938    23524169.063    92313914.532         449.551          46.500  
C01  37110208.938   193242599.998          40.876          44.688  
C02  38347313.000   199684529.589          17.005          40.938  
C03  36932614.187   192317820.335          46.674          45.250  
C04  38127055.000   198537584.157          25.143          41.688  
C06  40151583.000   209079682.343       -1742.620          35.438  
C07  36079587.188   187875881.301         350.936          45.438  
C09  38933326.750   202735978.580       -1834.337          38.125  
C10  36704922.125   191132165.211         507.910          44.938  
C13  38887485.812   202497416.117        1479.267          40.563  
C16  40108668.063   208856219.589       -1700.647          33.813  
C19  25751966.250   134097407.217        2133.856          41.813  
C20  25823676.625   134470681.211         565.879          39.875  
C24  24805979.813   129171333.762        2327.512          24.250  
C26  22250224.250   115862743.487        -112.708          49.250  
C29  24283792.125   126452067.728       -2120.123          44.688  
C35  21815453.062   113598791.122        -433.091          49.188  
C38  37212632.750   193775976.980        1308.712          45.750  
C40  36288541.063   188963963.847         379.490          46.563  
C44  23970242.750   124819388.957        1613.567          45.938  
C45  23497176.750   122355900.858       -2834.312          45.438  
> 2023 02 16 09 20 47.0000000  0 36                     
G01  20251513.750   106422425.385       -1620.018          47.875    20251507.125    79471270.183       -1209.819          47.500  
G03  22393289.187   117677658.273        2532.286          42.813    22393292.750    87876125.933        1890.871          43.938  
G07  22731578.375   119455117.179       -3081.575          41.625                                                                  
G08  24111495.063   126706747.289       -2240.277          38.750    24111496.187    94618662.850       -1673.067          41.875  
G14  20923336.062   109952888.858        1929.568          45.250    20923333.063    82107667.789        1440.887          47.313  
G17  22270210.500   117030769.538        1296.264          44.625                                                                  
G19  24554149.125   129032929.326        2367.535          38.000                                                                  
G21  22557668.250   118541341.201       -2981.168          44.063                                                                  
G30  22071605.813   115987049.022       -1625.430          44.938    22071606.438    86613691.597       -1213.744          47.000  
E02  24632907.187   129446815.552        1913.564          45.313    24632906.500    96664837.370        1428.830          44.125  
E10  26463834.625   139068379.339       -2501.042          43.500    26463836.688   103849769.244       -1867.672          44.063  
E11  23966353.000   125944038.870       -1734.841          43.500    23966350.375    94049107.369       -1295.476          43.313  
E24  26829219.937   140988370.924       -2460.446          40.250    26829238.688   105283641.934       -1837.211          39.375  
E25  23500245.000   123494595.906        -430.525          46.563    23500245.562    92220009.741        -321.552          47.313  
E34  26942034.500   141581485.484        2404.440          39.688    26942050.125   105726445.830        1795.597          40.313  
E36  23524052.187   123619756.254         602.573          46.250    23524054.687    92313465.057         449.840          46.688  
C01  37110200.875   193242559.245          41.302          44.625  
C02  38347310.437   199684512.529          17.576          40.750  
C03  36932605.500   192317773.707          47.001          45.313  
C04  38127050.812   198537559.182          25.080          41.688  
C06  40151917.687   209081424.872       -1741.882          35.438  
C07  36079519.875   187875530.248         351.620          45.188  
C09  38933678.938   202737812.839       -1833.645          38.188  
C10  36704824.500   191131657.180         508.620          45.000  
C13  38887201.750   202495936.836        1479.768          40.563  
C16  40108994.563   208857919.933       -1700.087          33.750  
C19  25751556.625   134095273.337        2134.381          41.813  
C20  25823567.875   134470115.418         566.268          39.750  
C24  24805535.187   129169005.779        2327.941          24.313  
C26  22250245.562   115862856.400        -112.570          49.125  
C29  24284199.750   126454187.740       -2119.429          44.813  
C35  21815536.000   113599224.216        -432.557          49.125  
C38  37212381.062   193774668.241        1309.296          45.813  
C40  36288467.812   188963584.207         380.247          46.563  
C44  23969932.813   124817775.353        1614.118          45.875  
C45  23497721.188   122358735.157       -2833.802          45.500  
> 2023 02 16 09 20 48.0000000  0 36                     
G01  20251821.937   106424045.779       -1620.713          47.688    20251815.312    79472480.203       -1210.206          47.188  
G03  22392807.813   117675126.302        2531.719          42.813    22392811.125    87874235.207        1890.632          44.063  
G07  22732164.500   119458198.864       -3081.946          41.563                                                                  
G08  24111921.563   126708987.587       -2240.405          38.750    24111922.687    94620335.820       -1673.059          41.938  
G14  20922969.125   109950959.515        1929.097          45.063    20922966.125    82106227.040        1440.619          47.688  
G17  22269963.750   117029473.322        1296.094          44.688                                                                  
G19  24553698.812   129030561.824        2367.399          38.000                                                                  
G21  22558235.875   118544322.481       -2981.417          44.000                                                                  
G30  22071915.125   115988674.670       -1625.930          44.875    22071915.875    86614905.540       -1214.127          47.188  
E02  24632543.250   129444902.197        1913.255          45.313    24632542.375    96663408.589        1428.679          44.250  
E10  26464310.562   139070880.424       -2501.249          43.250    26464312.563   103851636.959       -1867.738          44.063  
E11  23966683.125   125945773.882       -1735.158          43.813    23966680.625    94050403.010       -1295.826          43.250  
E24  26829688.187   140990831.445       -2460.794          40.000    26829706.875   105285479.299       -1837.458          39.313  
E25  23500327.000   123495026.798        -431.109          46.375    23500327.375    92220331.499        -321.960          46.938  
E34  26941577.000   141579081.084        2404.184          39.813    26941592.500   105724650.350        1795.384          40.313  
E36  23523937.375   123619154.079         601.974          46.125    23523940.000    92313015.382         449.478          46.500  
C01  37110193.312   193242517.942          41.265          44.938  
C02  38347307.187   199684494.883          17.285          40.563  
C03  36932596.188   192317726.472          47.011          45.188  
C04  38127045.500   198537533.569          25.057          41.688  
C06  40152251.875   209083166.833       -1742.008          35.438  
C07  36079452.562   187875178.555         351.609          45.188  
C09  38934031.500   202739646.499       -1833.711          38.188  
C10  36704727.125   191131148.547         508.512          45.063  
C13  38886917.938   202494457.033        1479.618          40.500  
C16  40109320.938   208859619.663       -1699.975          33.750  
C19  25751146.937   134093138.977        2134.209          41.813  
C20  25823459.125   134469549.464         565.707          39.813  
C24  24805087.125   129166677.521        2327.810          24.500  
C26  22250267.250   115862969.270        -113.151          49.250  
C29  24284606.625   126456307.144       -2119.520          44.750  
C35  21815619.125   113599656.889        -432.896          49.188  
C38  37212129.438   193773359.043        1309.015          45.875  
C40  36288394.937   188963203.949         380.110          46.688  
C44  23969622.750   124816161.348        1613.817          45.813  
C45  23498265.250   122361569.154       -2834.230          45.563  
> 2023 02 16 09 20 49.0000000  0 36                     
G01  20252130.500   106425667.267       -1621.865          47.563    20252123.813    79473691.058       -1211.121          47.125  
G03  22392325.875   117672595.253        2530.810          42.688    22392329.188    87872345.140        1889.858          44.000  
G07  22732751.375   119461281.318       -3082.685          41.625                                                                  
G08  24112348.125   126711228.455       -2241.010          38.875    24112348.937    94622009.153       -1673.412          41.875  
G14  20922601.938   109949031.108        1928.122          45.125    20922599.062    82104787.013        1439.821          47.438  
G17  22269717.313   117028177.761        1295.346          44.688                                                                  
G19  24553248.313   129028194.870        2366.890          38.000                                                                  
G21  22558803.063   118547304.461       -2982.164          44.188                                                                  
G30  22072224.563   115990301.366       -1627.017          44.813    22072225.250    86616120.283       -1214.940          46.938  
E02  24632179.188   129442989.663        1912.400          45.438    24632178.313    96661980.395        1428.084          44.000  
E10  26464786.562   139073382.133       -2501.881          43.375    26464788.500   103853505.119       -1868.271          43.938  
E11  23967013.563   125947509.661       -1735.989          43.688    23967011.063    94051699.180       -1296.341          43.375  
E24  26830156.812   140993292.730       -2461.273          40.000    26830175.313   105287317.261       -1838.116          39.375  
E25  23500408.750   123495458.613        -432.097          46.563    23500409.563    92220653.962        -322.631          47.188  
E34  26941119.750   141576677.426        2403.377          39.750    26941135.125   105722855.429        1794.797          40.313  
E36  23523822.875   123618552.821         601.021          46.000    23523825.500    92312566.399         448.754          46.500  
C01  37110185.125   193242477.172          40.734          44.688  
C02  38347303.437   199684477.759          17.063          40.438  
C03  36932587.125   192317679.816          46.484          45.500  
C04  38127040.438   198537508.517          24.763          41.563  
C06  40152586.750   209084909.225       -1742.485          35.375  
C07  36079384.750   187874827.442         351.041          45.313  
C09  38934383.750   202741480.699       -1834.217          38.125  
C10  36704629.250   191130640.408         508.044          45.063  
C13  38886633.500   202492977.818        1479.048          40.500  
C16  40109647.062   208861319.779       -1700.438          33.750  
C19  25750736.750   134091005.303        2133.469          41.688  
C20  25823351.000   134468984.551         564.662          39.875  
C24  24804642.250   129164350.173        2327.199          24.563  
C26  22250289.437   115863083.250        -114.335          49.313  
C29  24285013.500   126458427.112       -2120.085          44.750  
C35  21815702.563   113600090.293        -433.591          49.125  
C38  37211878.625   193772050.530        1308.330          45.875  
C40  36288321.937   188962824.209         379.631          46.813  
C44  23969313.250   124814548.086        1613.036          45.938  
C45  23498809.813   122364403.958       -2835.019          45.625  
> 2023 02 16 09 20 50.0000000  0 36                     
G01  20252439.250   106427289.306       -1621.667          47.500    20252432.688    79474902.316       -1210.960          47.438  
G03  22391844.188   117670064.595        2531.157          42.750    22391847.438    87870455.385        1890.053          43.938  
G07  22733338.063   119464363.940       -3082.019          41.563                                                                  
G08  24112774.625   126713469.359       -2240.285          38.813    24112775.250    94623682.552       -1673.017          41.813  
G14  20922235.000   109947103.136        1928.445          45.000    20922232.063    82103347.287        1440.057          47.375  
G17  22269471.000   117026882.331        1296.016          44.938                                                                  
G19  24552797.937   129025828.005        2367.400          38.000                                                                  
G21  22559370.500   118550286.574       -2981.607          44.188                                                                  
G30  22072534.500   115991928.574       -1626.815          44.938    22072535.063    86617335.413       -1214.820          47.063  
E02  24631815.187   129441077.335        1912.791          45.313    24631814.500    96660552.359        1428.380          44.063  
E10  26465262.875   139075883.956       -2501.081          43.313    26465264.937   103855373.348       -1867.882          44.125  
E11  23967343.812   125949245.649       -1735.361          43.563    23967341.312    94052995.561       -1295.981          43.313  
E24  26830625.125   140995754.255       -2460.869          40.000    26830643.750   105289155.383       -1837.707          39.375  
E25  23500491.813   123495890.845        -431.659          46.500    23500491.750    92220976.723        -322.394          47.188  
E34  26940662.438   141574274.033        2404.212          40.000    26940677.625   105721060.682        1795.152          40.313  
E36  23523708.750   123617951.970         601.317          46.125    23523711.187    92312117.715         449.062          46.750  
C01  37110176.937   193242436.423          40.882          44.375  
C02  38347300.312   199684460.663          17.606          40.625  
C03  36932578.500   192317633.131          47.018          45.313  
C04  38127036.000   198537483.536          25.342          41.563  
C06  40152921.500   209086651.596       -1741.812          35.438  
C07  36079317.250   187874476.338         351.694          45.375  
C09  38934735.500   202743314.882       -1833.617          38.000  
C10  36704531.750   191130132.314         508.669          45.063  
C13  38886349.187   202491498.791        1479.559          40.625  
C16  40109973.188   208863019.973       -1699.814          33.750  
C19  25750326.875   134088871.833        2133.954          41.625  
C20  25823242.375   134468420.074         564.903          39.938  
C24  24804197.250   129162023.208        2328.310          24.625  
C26  22250311.062   115863197.807        -114.204          49.250  
C29  24285421.000   126460547.102       -2119.440          44.813  
C35  21815785.688   113600523.925        -433.112          49.188  
C38  37211627.250   193770742.187        1308.895          45.813  
C40  36288248.812   188962444.474         380.346          46.688  
C44  23969003.312   124812935.015        1613.532          45.813  
C45  23499354.312   122367239.049       -2834.554          45.438  
> 2023 02 16 09 20 51.0000000  0 36                     
G01  20252747.750   106428910.943       -1621.746          47.625    20252741.062    79476113.280       -1211.018          47.188  
G03  22391363.000   117667533.415        2531.071          42.500    22391366.000    87868565.227        1890.125          43.938  
G07  22733924.312   119467445.856       -3081.910          41.625                                                                  
G08  24113201.125   126715709.385       -2239.865          38.875    24113201.750    94625355.313       -1672.740          41.875  
G14  20921868.313   109945174.615        1928.478          44.938    20921865.375    82101907.147        1440.110          47.625  
G17  22269224.187   117025586.053        1296.236          44.875                                                                  
G19  24552347.437   129023460.258        2367.754          37.938                                                                  
G21  22559937.938   118553267.886       -2981.247          44.250                                                                  
G30  22072843.938   115993555.385       -1626.879          44.875    22072844.688    86618550.210       -1214.853          47.125  
E02  24631451.438   129439164.318        1913.188          45.313    24631450.688    96659123.803        1428.588          44.125  
E10  26465738.688   139078384.886       -2500.946          43.438    26465741.000   103857240.936       -1867.544          44.063  
E11  23967674.125   125950980.955       -1735.273          43.625    23967671.500    94054291.395       -1295.858          43.188  
E24  26831093.375   140998215.066       -2460.802          40.000    26831112.063   105290992.964       -1837.669          39.313  
E25  23500573.125   123496322.500        -431.749          46.375    23500573.687    92221299.070        -322.322          47.000  
E34  26940204.875   141571869.840        2404.265          40.063    26940220.125   105719265.381        1795.364          40.250  
E36  23523594.250   123617350.551         601.370          45.813    23523596.688    92311668.589         449.086          46.625  
C01  37110169.563   193242394.757          41.338          44.563  
C02  38347296.812   199684442.701          17.817          40.625  
C03  36932569.062   192317585.585          47.223          45.313  
C04  38127031.000   198537457.600          25.606          41.813  
C06  40153255.688   209088392.940       -1741.268          35.313  
C07  36079249.937   187874124.310         352.123          45.500  
C09  38935088.125   202745148.192       -1833.243          38.063  
C10  36704434.250   191129623.240         509.146          45.188  
C13  38886065.063   202490018.899        1479.974          40.563  
C16  40110300.250   208864719.149       -1699.344          33.813  
C19  25749917.250   134086737.571        2134.296          41.563  
C20  25823134.313   134467855.113         564.851          40.000  
C24  24803749.313   129159695.460        2327.519          24.813  
C26  22250333.000   115863311.971        -114.297          49.313  
C29  24285827.750   126462666.163       -2119.096          44.688  
C35  21815868.875   113600956.820        -432.903          49.188  
C38  37211375.750   193769433.070        1309.161          45.875  
C40  36288175.812   188962063.787         380.730          46.750  
C44  23968693.438   124811321.223        1613.739          45.813  
C45  23499898.438   122370073.513       -2834.444          45.500  
> 2023 02 16 09 20 52.0000000  0 36                     
G01  20253056.562   106430533.158       -1622.840          47.625    20253049.812    79477324.670       -1211.896          47.188  
G03  22390881.250   117665002.612        2530.245          42.563    22390884.312    87866675.350        1889.483          44.000  
G07  22734510.875   119470527.993       -3082.646          41.500                                                                  
G08  24113627.312   126717949.430       -2240.413          39.000    24113627.813    94627028.070       -1673.093          41.688  
G14  20921501.125   109943246.494        1927.551          44.875    20921498.375    82100467.322        1439.458          47.563  
G17  22268977.500   117024289.894        1295.669          44.875                                                                  
G19  24551897.000   129021092.602        2367.225          37.625                                                                  
G21  22560505.187   118556249.341       -2981.894          44.063                                                                  
G30  22073153.375   115995182.674       -1627.904          44.750    22073154.250    86619765.397       -1215.668          46.938  
E02  24631087.312   129437251.501        1912.334          45.250    24631086.687    96657695.434        1428.031          44.063  
E10  26466214.625   139080885.879       -2501.349          43.375    26466217.063   103859108.558       -1867.948          43.938  
E11  23968004.687   125952716.502       -1735.846          43.688    23968001.875    94055587.420       -1296.325          43.313  
E24  26831561.875   141000676.118       -2461.642          40.125    26831580.563   105292830.698       -1838.100          39.500  
E25  23500655.937   123496754.594        -432.634          46.250    23500656.125    92221621.728        -323.074          47.250  
E34  26939747.625   141569465.861        2403.651          39.625    26939762.688   105717470.250        1794.767          40.375  
E36  23523479.687   123616749.504         600.501          45.563    23523482.187    92311219.772         448.423          46.500  
C01  37110161.188   193242353.166          41.202          44.500  
C02  38347293.063   199684424.694          17.729          40.813  
C03  36932559.875   192317538.064          47.112          45.000  
C04  38127026.000   198537431.720          25.668          41.625  
C06  40153590.312   209090134.224       -1741.755          35.438  
C07  36079182.062   187873772.290         351.609          45.563  
C09  38935439.813   202746981.479       -1833.756          38.000  
C10  36704336.250   191129114.211         508.613          45.188  
C13  38885780.688   202488539.141        1479.278          40.563  
C16  40110626.125   208866418.178       -1699.530          33.750  
C19  25749507.313   134084603.510        2133.625          41.563  
C20  25823026.063   134467290.607         563.950          40.125  
C24  24803302.437   129157368.354        2326.716          24.813  
C26  22250355.250   115863426.726        -115.360          49.313  
C29  24286234.625   126464785.266       -2119.527          44.688  
C35  21815952.125   113601389.909        -433.596          49.125  
C38  37211124.688   193768124.101        1308.491          46.000  
C40  36288102.938   188961683.109         380.253          46.750  
C44  23968383.750   124809707.651        1613.109          45.813  
C45  23500442.937   122372908.278       -2835.283          45.500  
> 2023 02 16 09 20 53.0000000  0 36                     
G01  20253365.500   106432156.463       -1623.799          47.750    20253358.937    79478536.871       -1212.490          47.375  
G03  22390399.625   117662472.758        2529.303          42.625    22390402.750    87864786.165        1888.934          43.938  
G07  22735097.750   119473610.851       -3083.194          41.313                                                                  
G08  24114053.687   126720190.068       -2240.917          39.000    24114054.125    94628701.262       -1673.304          41.688  
G14  20921134.125   109941319.295        1926.711          45.000    20921131.500    82099028.201        1438.806          47.375  
G17  22268731.125   117022994.399        1295.195          44.688                                                                  
G19  24551446.250   129018725.510        2366.701          37.438                                                                  
G21  22561072.625   118559231.492       -2982.387          43.938                                                                  
G30  22073463.438   115996811.031       -1628.787          44.625    22073464.250    86620981.381       -1216.292          47.188  
E02  24630723.375   129435339.489        1911.629          45.250    24630722.750    96656267.610        1427.567          44.000  
E10  26466690.812   139083387.524       -2501.893          43.563    26466693.312   103860976.651       -1868.338          44.188  
E11  23968335.000   125954452.833       -1736.822          43.500    23968332.188    94056884.047       -1296.850          43.188  
E24  26832030.062   141003137.932       -2462.236          40.063    26832048.938   105294669.008       -1838.640          39.438  
E25  23500738.063   123497187.590        -433.456          46.375    23500738.563    92221945.069        -323.696          47.313  
E34  26939290.188   141567062.763        2402.653          39.688    26939305.250   105715675.723        1794.250          40.375  
E36  23523365.625   123616149.388         599.708          45.688    23523368.000    92310771.628         447.807          46.563  
C01  37110153.187   193242312.072          40.959          44.438  
C02  38347290.625   199684407.331          17.514          40.688  
C03  36932551.375   192317491.082          47.004          44.938  
C04  38127021.375   198537406.381          25.297          41.625  
C06  40153924.875   209091876.017       -1742.053          35.375  
C07  36079114.625   187873420.840         351.191          45.625  
C09  38935791.750   202748815.345       -1834.230          37.938  
C10  36704238.437   191128605.665         508.229          45.125  
C13  38885496.250   202487060.007        1478.791          40.563  
C16  40110952.312   208868117.754       -1699.883          33.813  
C19  25749097.500   134082470.147        2133.076          41.563  
C20  25822917.563   134466727.117         562.952          40.188  
C24  24802855.000   129155042.093        2327.148          24.813  
C26  22250377.188   115863542.598        -116.289          49.188  
C29  24286641.938   126466904.900       -2119.910          44.625  
C35  21816035.250   113601823.729        -434.232          49.063  
C38  37210873.125   193766815.844        1307.925          46.063  
C40  36288029.750   188961302.946         379.816          46.875  
C44  23968074.000   124808094.809        1612.540          45.750  
C45  23500987.313   122375743.845       -2835.954          45.375  
> 2023 02 16 09 20 54.0000000  0 36                     
G01  20253674.437   106433780.925       -1624.391          47.750    20253667.938    79479749.944       -1213.047          47.125  
G03  22389918.625   117659943.883        2529.080          42.750    22389921.687    87862897.776        1888.541          43.938  
G07  22735684.375   119476694.513       -3083.459          41.125                                                                  
G08  24114480.312   126722431.348       -2240.947          39.063    24114480.688    94630374.936       -1673.473          41.750  
G14  20920768.000   109939393.169        1926.345          44.938    20920765.062    82097589.844        1438.472          47.625  
G17  22268484.375   117021699.601        1295.038          44.688                                                                  
G19  24550995.937   129016359.110        2366.611          37.688                                                                  
G21  22561640.375   118562214.417       -2982.672          43.875                                                                  
G30  22073773.437   115998440.525       -1629.484          44.625    22073774.312    86622198.193       -1216.763          47.188  
E02  24630360.000   129433428.302        1911.525          45.375    24630359.250    96654840.439        1427.355          44.125  
E10  26467166.875   139085889.817       -2501.905          43.438    26467169.437   103862845.238       -1868.404          44.125  
E11  23968665.625   125956190.018       -1736.816          43.688    23968662.687    94058181.286       -1296.979          43.125  
E24  26832498.813   141005600.575       -2462.533          39.875    26832517.500   105296508.006       -1838.791          39.500  
E25  23500820.625   123497621.632        -433.919          46.188    23500821.125    92222269.200        -323.976          47.063  
E34  26938832.688   141564660.465        2402.358          39.813    26938848.125   105713881.822        1794.083          40.188  
E36  23523251.500   123615550.262         599.411          46.000    23523254.063    92310324.227         447.542          46.500  
C01  37110145.750   193242271.649          40.696          44.563  
C02  38347286.875   199684390.551          17.006          40.625  
C03  36932542.125   192317444.772          46.610          45.188  
C04  38127016.625   198537381.752          24.784          41.188  
C06  40154259.000   209093618.360       -1742.061          35.563  
C07  36079047.438   187873070.013         351.129          45.625  
C09  38936144.063   202750649.840       -1834.220          38.063  
C10  36704141.125   191128097.749         508.242          45.188  
C13  38885212.438   202485581.631        1478.587          40.625  
C16  40111278.687   208869817.846       -1699.935          33.688  
C19  25748688.313   134080337.548        2132.743          41.625  
C20  25822809.250   134466164.702         562.480          40.188  
C24  24802410.688   129152716.686        2325.930          25.063  
C26  22250399.563   115863659.640        -116.997          49.250  
C29  24287048.562   126469025.178       -2119.952          44.563  
C35  21816118.750   113602258.385        -434.376          49.000  
C38  37210621.875   193765508.337        1307.758          46.000  
C40  36287956.875   188960923.394         379.915          46.875  
C44  23967764.375   124806482.788        1612.233          45.750  
C45  23501531.938   122378580.346       -2836.290          45.438  
> 2023 02 16 09 20 55.0000000  0 36                     
G01  20253983.813   106435405.682       -1624.578          47.688    20253977.063    79480963.237       -1213.182          47.250  
G03  22389437.437   117657415.173        2528.962          42.750    22389440.500    87861009.454        1888.471          44.000  
G07  22736271.250   119479778.142       -3083.283          41.063                                                                  
G08  24114906.312   126724672.436       -2240.753          39.000    24114906.938    94632048.470       -1673.254          41.688  
G14  20920401.375   109937467.154        1926.224          44.875    20920398.500    82096151.598        1438.358          47.625  
G17  22268237.750   117020404.680        1295.248          44.563                                                                  
G19  24550545.500   129013992.506        2366.930          37.563                                                                  
G21  22562207.750   118565197.224       -2982.511          43.875                                                                  
G30  22074083.563   116000070.268       -1629.554          44.500    22074084.188    86623415.205       -1216.873          47.000  
E02  24629996.250   129431517.127        1911.428          45.375    24629995.437    96653413.254        1427.369          44.063  
E10  26467642.937   139088391.920       -2501.725          43.250    26467645.500   103864713.709       -1868.253          44.063  
E11  23968996.375   125957927.143       -1736.819          43.563    23968993.312    94059478.506       -1297.015          43.250  
E24  26832967.625   141008063.205       -2462.236          39.813    26832986.313   105298346.904       -1838.723          39.688  
E25  23500903.375   123498055.804        -434.073          46.063    23500903.812    92222593.417        -324.063          47.250  
E34  26938375.813   141562258.134        2402.787          39.625    26938391.125   105712087.879        1794.091          40.250  
E36  23523137.438   123614951.246         599.205          45.938    23523140.063    92309876.925         447.481          46.500  
C01  37110137.813   193242230.955          40.847          44.563  
C02  38347283.375   199684373.510          17.222          40.688  
C03  36932533.313   192317398.217          46.826          44.875  
C04  38127011.500   198537356.807          25.284          41.188  
C06  40154593.938   209095360.434       -1741.609          35.563  
C07  36078979.750   187872718.955         351.363          45.688  
C09  38936496.062   202752484.082       -1833.930          38.063  
C10  36704043.313   191127589.565         508.531          45.188  
C13  38884928.187   202484103.112        1478.854          40.563  
C16  40111605.125   208871517.664       -1699.471          33.750  
C19  25748278.750   134078204.871        2132.947          41.688  
C20  25822701.687   134465602.444         562.484          40.188  
C24  24801962.812   129150391.570        2324.232          25.313  
C26  22250422.375   115863776.990        -117.268          49.188  
C29  24287455.750   126471145.222       -2119.720          44.563  
C35  21816202.375   113602692.986        -434.339          49.063  
C38  37210371.188   193764200.749        1307.889          45.938  
C40  36287884.000   188960543.584         380.174          46.938  
C44  23967455.000   124804870.730        1612.361          45.750  
C45  23502077.000   122381416.859       -2836.344          45.438  
> 2023 02 16 09 20 56.0000000  0 36                     
G01  20254293.062   106437030.676       -1624.989          47.500    20254286.500    79482176.702       -1213.469          47.375  
G03  22388956.125   117654886.517        2528.696          42.688    22388959.250    87859121.187        1888.262          43.875  
G07  22736858.000   119482861.647       -3083.342          40.875                                                                  
G08  24115332.688   126726913.223       -2240.691          39.000    24115333.313    94633721.780       -1673.178          41.688  
G14  20920034.937   109935541.246        1926.008          44.938    20920031.875    82094713.404        1438.242          47.438  
G17  22267991.563   117019109.535        1295.277          44.438                                                                  
G19  24550094.938   129011625.695        2367.057          37.688                                                                  
G21  22562775.375   118568179.821       -2982.427          43.875                                                                  
G30  22074393.938   116001700.200       -1629.939          44.625    22074394.562    86624632.371       -1217.155          47.188  
E02  24629632.438   129429605.850        1911.344          45.313    24629631.625    96651985.996        1427.308          43.938  
E10  26468119.500   139090893.794       -2501.634          43.563    26468121.688   103866581.977       -1868.086          44.188  
E11  23969326.687   125959664.175       -1736.933          43.438    23969323.688    94060775.638       -1297.077          43.063  
E24  26833435.812   141010525.747       -2462.414          39.813    26833455.000   105300185.818       -1838.780          39.563  
E25  23500986.000   123498490.053        -434.177          46.125    23500986.375    92222917.682        -324.181          47.250  
E34  26937918.812   141559855.751        2402.569          39.750    26937933.937   105710293.840        1794.086          40.188  
E36  23523023.687   123614352.288         599.091          46.250    23523026.250    92309429.672         447.298          46.563  
C01  37110129.687   193242189.980          41.037          44.750  
C02  38347280.500   199684356.224          17.261          40.688  
C03  36932524.813   192317351.326          46.970          45.125  
C04  38127007.000   198537331.589          25.328          41.313  
C06  40154928.500   209097102.141       -1741.469          35.438  
C07  36078912.188   187872367.571         351.604          45.563  
C09  38936848.188   202754318.032       -1833.719          38.000  
C10  36703945.562   191127081.084         508.723          45.000  
C13  38884643.937   202482624.352        1478.901          40.625  
C16  40111931.625   208873217.074       -1699.325          33.625  
C19  25747869.063   134076072.018        2132.924          41.625  
C20  25822593.625   134465040.381         562.131          40.188  
C24  24801516.875   129148066.334        2324.627          25.438  
C26  22250444.625   115863894.592        -117.639          49.125  
C29  24287863.063   126473264.952       -2119.493          44.563  
C35  21816285.562   113603127.463        -434.379          49.125  
C38  37210119.875   193762892.982        1307.846          46.000  
C40  36287810.812   188960163.439         380.359          46.938  
C44  23967145.250   124803258.543        1612.283          45.688  
C45  23502621.625   122384253.350       -2836.420          45.438  
> 2023 02 16 09 20 57.0000000  0 36                     
G01  20254602.188   106438655.701       -1625.024          47.625    20254595.563    79483390.209       -1213.466          47.250  
G03  22388475.125   117652357.756        2528.834          42.688    22388478.062    87857232.856        1888.434          43.938  
G07  22737444.438   119485944.841       -3082.965          40.938                                                                  
G08  24115759.000   126729153.545       -2240.154          39.063    24115759.688    94635394.758       -1672.828          41.750  
G14  20919668.375   109933615.197        1926.140          44.813    20919665.437    82093275.139        1438.359          47.625  
G17  22267744.875   117017814.003        1295.716          44.438                                                                  
G19  24549644.938   129009258.395        2367.460          37.813                                                                  
G21  22563343.125   118571162.060       -2982.112          43.750                                                                  
G30  22074704.000   116003330.137       -1629.887          44.813    22074704.875    86625849.513       -1217.119          47.188  
E02  24629268.938   129427694.278        1911.886          45.625    24629268.000    96650558.557        1427.624          44.188  
E10  26468595.312   139093395.207       -2501.078          43.625    26468597.625   103868449.920       -1867.806          44.063  
E11  23969657.187   125961400.927       -1736.528          43.563    23969654.250    94062072.563       -1296.853          43.188  
E24  26833904.563   141012987.969       -2461.968          39.813    26833923.750   105302024.470       -1838.570          39.438  
E25  23501068.500   123498924.183        -433.945          46.313    23501068.875    92223241.888        -324.121          46.938  
E34  26937461.687   141557452.980        2402.961          39.813    26937476.562   105708499.655        1794.332          40.125  
E36  23522909.500   123613753.208         599.328          46.000    23522912.250    92308982.295         447.416          46.500  
C01  37110121.938   193242148.545          41.353          44.750  
C02  38347277.188   199684338.427          17.723          40.813  
C03  36932515.125   192317303.981          47.363          45.250  
C04  38127002.063   198537305.848          25.646          41.438  
C06  40155262.563   209098843.236       -1740.904          35.375  
C07  36078844.875   187872015.723         352.145          45.563  
C09  38937200.688   202756151.516       -1833.302          37.875  
C10  36703848.187   191126572.047         509.280          44.938  
C13  38884359.937   202481145.226        1479.323          40.688  
C16  40112258.063   208874915.941       -1698.790          33.688  
C19  25747459.937   134073938.879        2133.292          41.688  
C20  25822486.063   134464478.247         562.221          40.250  
C24  24801070.250   129145741.178        2324.986          25.750  
C26  22250467.000   115864012.252        -117.598          49.125  
C29  24288269.875   126475384.216       -2119.012          44.625  
C35  21816368.938   113603561.647        -433.990          49.188  
C38  37209868.500   193761584.874        1308.287          46.000  
C40  36287737.750   188959782.792         380.858          46.938  
C44  23966835.312   124801646.072        1612.633          45.688  
C45  23503166.125   122387089.616       -2836.128          45.375  
> 2023 02 16 09 20 58.0000000  0 36                     
G01  20254911.687   106440281.334       -1626.339          47.688    20254904.937    79484604.163       -1214.393          47.250  
G03  22387994.125   117649829.425        2527.675          42.625    22387997.062    87855344.828        1887.570          44.000  
G07  22738031.375   119489028.305       -3084.094          41.000                                                                  
G08  24116185.438   126731393.987       -2240.952          38.875    24116185.875    94637067.813       -1673.365          41.688  
G14  20919302.000   109931689.631        1924.845          44.750    20919299.000    82091837.202        1437.539          47.688  
G17  22267498.125   117016518.637        1294.922          44.500                                                                  
G19  24549194.438   129006891.232        2366.722          37.813                                                                  
G21  22563910.563   118574144.523       -2982.950          43.563                                                                  
G30  22075014.125   116004960.642       -1631.186          44.750    22075015.000    86627067.072       -1218.006          47.063  
E02  24628905.250   129425783.008        1910.679          45.500    24628904.187    96649131.294        1426.867          44.125  
E10  26469071.500   139095896.760       -2501.988          43.500    26469073.625   103870317.957       -1868.388          44.125  
E11  23969987.937   125963138.016       -1737.621          43.500    23969984.875    94063369.710       -1297.648          43.250  
E24  26834373.312   141015450.501       -2463.089          39.875    26834392.500   105303863.329       -1839.316          39.563  
E25  23501150.875   123499358.786        -435.127          46.250    23501151.625    92223566.423        -325.010          47.188  
E34  26937004.875   141555050.528        2401.885          39.938    26937019.438   105706705.619        1793.659          40.063  
E36  23522795.375   123613154.573         598.009          46.250    23522798.250    92308535.248         446.600          46.500  
C01  37110114.000   193242107.212          40.913          44.813  
C02  38347273.188   199684320.719          17.405          40.875  
C03  36932505.937   192317256.682          46.905          45.313  
C04  38126996.688   198537280.252          25.166          41.438  
C06  40155597.250   209100584.362       -1741.565          35.375  
C07  36078777.063   187871663.913         351.387          45.500  
C09  38937552.688   202757985.002       -1833.958          37.813  
C10  36703750.313   191126063.082         508.502          44.875  
C13  38884075.625   202479666.190        1478.534          40.563  
C16  40112583.937   208876614.788       -1699.327          33.688  
C19  25747050.125   134071805.915        2132.464          41.750  
C20  25822378.500   134463916.627         561.035          40.313  
C24  24800624.187   129143416.356        2324.381          25.938  
C26  22250490.000   115864130.542        -118.930          49.000  
C29  24288677.000   126477503.527       -2119.785          44.625  
C35  21816452.500   113603996.059        -434.987          49.250  
C38  37209617.687   193760276.994        1307.373          46.000  
C40  36287664.813   188959402.188         380.171          46.938  
C44  23966525.938   124800033.831        1611.683          45.625  
C45  23503711.187   122389926.248       -2837.173          45.500  
> 2023 02 16 09 20 59.0000000  0 36                     
G01  20255221.187   106441908.058       -1626.422          47.688    20255214.687    79485818.916       -1214.492          47.438  
G03  22387512.938   117647302.043        2527.700          42.625    22387515.875    87853457.505        1887.590          43.875  
G07  22738618.250   119492112.500       -3083.777          41.000                                                                  
G08  24116612.000   126733635.045       -2240.523          38.875    24116612.375    94638741.284       -1673.100          41.688  
G14  20918935.500   109929764.998        1924.973          44.938    20918932.750    82090399.983        1437.476          47.438  
G17  22267252.312   117015223.911        1295.202          44.563                                                                  
G19  24548743.875   129004524.638        2367.052          37.688                                                                  
G21  22564478.500   118577127.645       -2982.648          43.438                                                                  
G30  22075324.938   116006592.184       -1631.220          44.813    22075325.688    86628285.455       -1218.109          47.313  
E02  24628541.500   129423872.518        1910.957          45.313    24628540.750    96647704.620        1426.977          44.000  
E10  26469547.813   139098398.912       -2501.822          43.563    26469549.750   103872186.447       -1868.148          44.250  
E11  23970318.500   125964875.831       -1737.321          43.625    23970315.437    94064667.445       -1297.441          43.188  
E24  26834842.000   141017913.802       -2462.838          39.813    26834861.125   105305702.743       -1839.072          39.563  
E25  23501234.375   123499794.317        -435.011          46.375    23501234.437    92223891.640        -324.934          47.125  
E34  26936547.688   141552648.847        2402.313          39.813    26936562.500   105704912.180        1793.775          40.125  
E36  23522681.813   123612556.865         598.190          46.500    23522684.562    92308088.902         446.601          46.625  
C01  37110105.875   193242066.401          41.161          44.750  
C02  38347270.438   199684303.527          17.731          40.750  
C03  36932497.375   192317209.987          47.188          45.063  
C04  38126992.125   198537255.167          25.653          41.375  
C06  40155931.312   209102326.051       -1741.191          35.375  
C07  36078709.562   187871312.673         351.725          45.563  
C09  38937904.875   202759819.084       -1833.555          37.750  
C10  36703652.437   191125554.649         508.901          44.875  
C13  38883791.500   202478187.851        1478.827          40.688  
C16  40112910.125   208878314.174       -1698.631          33.688  
C19  25746640.313   134069673.664        2132.657          41.750  
C20  25822270.750   134463355.999         560.969          40.438  
C24  24800180.375   129141092.338        2324.213          26.250  
C26  22250512.625   115864249.941        -119.124          48.938  
C29  24289084.250   126479623.390       -2119.368          44.625  
C35  21816535.938   113604431.255        -434.841          49.188  
C38  37209366.812   193758969.797        1307.609          45.938  
C40  36287591.500   188959022.098         380.583          46.875  
C44  23966216.438   124798422.355        1611.860          45.625  
C45  23504255.875   122392763.676       -2837.053          45.500  
> 2023 02 16 09 21 00.0000000  0 36                     
G01  20255530.750   106443535.347       -1627.693          47.563    20255524.187    79487034.096       -1215.460          47.125  
G03  22387031.812   117644775.072        2526.686          42.625    22387034.875    87851570.493        1886.807          43.813  
G07  22739205.313   119495196.914       -3084.686          40.938                                                                  
G08  24117038.625   126735876.066       -2241.106          38.750    24117038.813    94640414.812       -1673.607          41.750  
G14  20918569.500   109927840.788        1923.877          44.750    20918566.625    82088963.078        1436.709          47.500  
G17  22267005.687   117013929.307        1294.397          44.750                                                                  
G19  24548293.625   129002158.142        2366.458          37.625                                                                  
G21  22565045.937   118580110.936       -2983.566          43.313                                                                  
G30  22075635.313   116008224.255       -1632.404          44.875    22075636.188    86629504.195       -1219.010          47.188  
E02  24628178.125   129421962.252        1909.910          45.563    24628177.437    96646278.131        1426.305          44.188  
E10  26470023.812   139100901.148       -2502.373          43.500    26470025.750   103874055.007       -1868.697          44.063  
E11  23970649.437   125966613.937       -1738.302          43.625    23970646.125    94065965.366       -1298.122          43.250  
E24  26835311.062   141020377.330       -2464.115          39.750    26835330.000   105307542.375       -1839.855          39.688  
E25  23501316.625   123500230.252        -436.493          46.375    23501317.312    92224217.198        -325.768          46.875  
E34  26936090.438   141550247.423        2401.012          39.938    26936105.313   105703118.922        1793.054          40.000  
E36  23522568.062   123611959.518         597.083          45.938    23522570.812    92307642.852         445.822          46.500  
C01  37110098.500   193242025.606          40.768          44.688  
C02  38347266.875   199684286.385          16.920          40.625  
C03  36932488.000   192317163.284          46.810          45.125  
C04  38126987.375   198537230.199          24.912          41.250  
C06  40156265.938   209104067.602       -1741.805          35.375  
C07  36078642.562   187870961.461         351.076          45.500  
C09  38938257.250   202761653.206       -1834.189          37.813  
C10  36703555.312   191125046.228         508.223          44.813  
C13  38883507.813   202476709.615        1477.947          40.688  
C16  40113236.812   208880013.439       -1699.497          33.563  
C19  25746231.000   134067541.594        2131.817          41.813  
C20  25822163.250   134462795.841         559.758          40.563  
C24  24799734.875   129138768.829        2322.872          26.500  
C26  22250535.625   115864369.914        -120.380          48.938  
C29  24289491.000   126481743.314       -2120.076          44.750  
C35  21816619.687   113604866.643        -435.629          49.250  
C38  37209115.563   193757662.766        1306.786          45.875  
C40  36287518.625   188958642.021         379.924          46.938  
C44  23965906.875   124796811.075        1611.081          45.625  
C45  23504800.750   122395601.433       -2838.051          45.500  
> 2023 02 16 09 21 01.0000000  0 36                     
G01  20255840.750   106445163.244       -1627.700          47.563    20255834.062    79488249.732       -1215.422          47.250  
G03  22386551.375   117642248.545        2526.768          42.438    22386554.250    87849683.810        1886.959          43.813  
G07  22739792.500   119498281.572       -3084.308          41.000                                                                  
G08  24117464.937   126738117.216       -2240.772          38.500    24117465.188    94642088.397       -1673.225          41.625  
G14  20918203.437   109925917.040        1924.000          44.813    20918200.688    82087526.504        1436.808          47.688  
G17  22266759.250   117012634.889        1294.880          44.500                                                                  
G19  24547843.312   128999791.772        2366.722          37.688                                                                  
G21  22565613.500   118583094.406       -2983.121          43.250                                                                  
G30  22075945.938   116009856.894       -1632.437          44.938    22075946.687    86630723.363       -1218.959          47.000  
E02  24627814.750   129420052.285        1910.396          45.438    24627813.937    96644851.841        1426.539          44.125  
E10  26470500.062   139103403.554       -2502.003          43.438    26470502.000   103875923.673       -1868.348          44.125  
E11  23970980.438   125968352.297       -1738.125          43.438    23970977.125    94067263.510       -1297.855          43.188  
E24  26835780.187   141022841.162       -2463.718          39.813    26835798.937   105309382.184       -1839.537          39.625  
E25  23501400.437   123500666.656        -436.019          46.688    23501400.500    92224543.076        -325.684          47.188  
E34  26935633.625   141547846.285        2401.397          39.750    26935648.375   105701325.885        1793.214          39.938  
E36  23522454.375   123611362.626         597.209          46.188    23522457.063    92307197.116         445.952          46.375  
C01  37110090.625   193241984.880          40.986          44.625  
C02  38347263.437   199684269.355          17.369          40.813  
C03  36932479.000   192317116.722          47.149          45.250  
C04  38126982.250   198537205.233          25.383          41.313  
C06  40156600.813   209105809.198       -1741.248          35.438  
C07  36078574.875   187870610.313         351.577          45.563  
C09  38938609.375   202763487.379       -1833.802          37.813  
C10  36703457.500   191124537.824         508.822          44.813  
C13  38883223.938   202475231.533        1478.464          40.688  
C16  40113562.938   208881712.702       -1698.931          33.563  
C19  25745821.688   134065409.752        2132.214          41.875  
C20  25822055.937   134462236.198         559.943          40.688  
C24  24799288.125   129136445.685        2323.344          26.625  
C26  22250559.063   115864490.508        -120.343          49.000  
C29  24289898.375   126483863.283       -2119.601          44.813  
C35  21816703.437   113605302.276        -435.318          49.188  
C38  37208864.750   193756355.940        1307.173          45.938  
C40  36287445.875   188958261.996         380.439          46.750  
C44  23965597.813   124795200.089        1611.382          45.625  
C45  23505346.125   122398439.520       -2837.816          45.563  
> 2023 02 16 09 21 02.0000000  0 36                     
G01  20256150.562   106446791.553       -1628.416          47.500    20256143.937    79489465.681       -1216.010          47.313  
G03  22386070.250   117639722.278        2526.208          42.375    22386073.438    87847797.339        1886.498          43.813  
G07  22740379.375   119501366.279       -3084.692          41.188                                                                  
G08  24117891.563   126740358.280       -2240.910          38.563    24117891.750    94643761.912       -1673.435          41.688  
G14  20917837.375   109923993.534        1923.429          44.750    20917834.375    82086090.141        1436.364          47.438  
G17  22266513.062   117011340.430        1294.522          44.375                                                                  
G19  24547392.687   128997425.316        2366.556          37.563                                                                  
G21  22566181.625   118586077.912       -2983.390          43.250                                                                  
G30  22076257.000   116011489.907       -1633.105          44.938    22076257.625    86631942.813       -1219.500          47.313  
E02  24627451.125   129418142.411        1910.015          45.500    24627450.500    96643425.651        1426.234          44.063  
E10  26470976.313   139105905.794       -2502.183          43.563    26470978.187   103877792.264       -1868.525          44.188  
E11  23971311.063   125970090.747       -1738.453          43.500    23971307.875    94068561.703       -1298.155          43.063  
E24  26836248.812   141025305.058       -2463.879          39.875    26836267.625   105311222.066       -1839.828          39.563  
E25  23501482.875   123501103.298        -436.824          46.438    23501483.625    92224869.137        -326.072          47.188  
E34  26935176.625   141545445.200        2400.993          39.563    26935191.438   105699532.895        1793.012          40.000  
E36  23522340.938   123610765.956         596.611          46.250    23522343.688    92306751.544         445.540          46.563  
C01  37110082.250   193241944.051          40.802          44.625  
C02  38347260.375   199684252.239          17.093          40.750  
C03  36932470.625   192317069.989          46.760          45.313  
C04  38126977.500   198537180.162          25.039          41.250  
C06  40156935.062   209107550.602       -1741.309          35.375  
C07  36078507.312   187870259.032         351.369          45.438  
C09  38938961.563   202765321.436       -1833.959          37.813  
C10  36703359.625   191124029.286         508.629          44.875  
C13  38882939.812   202473753.415        1478.185          40.813  
C16  40113889.125   208883411.831       -1698.944          33.563  
C19  25745411.875   134063277.921        2131.857          41.813  
C20  25821948.375   134461676.868         559.263          40.688  
C24  24798841.437   129134122.872        2322.745          26.875  
C26  22250582.062   115864611.526        -121.104          49.000  
C29  24290305.375   126485983.138       -2119.749          44.813  
C35  21816786.812   113605737.985        -435.659          49.250  
C38  37208613.875   193755049.154        1306.855          45.938  
C40  36287372.688   188957881.830         380.290          46.875  
C44  23965288.375   124793589.134        1610.977          45.625  
C45  23505890.937   122401277.767       -2838.265          45.625  
> 2023 02 16 09 21 03.0000000  0 36                     
G01  20256460.375   106448420.445       -1628.908          47.563    20256453.625    79490682.069       -1216.381          47.063  
G03  22385589.687   117637196.438        2525.954          42.625    22385592.625    87845911.175        1886.223          43.625  
G07  22740966.562   119504451.273       -3084.834          41.438                                                                  
G08  24118318.000   126742599.430       -2241.017          38.750    24118318.250    94645435.479       -1673.351          41.688  
G14  20917471.750   109922070.489        1923.132          44.813    20917468.500    82084654.104        1436.079          47.438  
G17  22266266.625   117010046.096        1294.459          43.938                                                                  
G19  24546942.500   128995058.959        2366.474          37.313                                                                  
G21  22566749.313   118589061.595       -2983.521          43.313                                                                  
G30  22076567.687   116013123.449       -1633.526          44.938    22076568.500    86633162.667       -1219.857          47.188  
E02  24627087.812   129416232.790        1909.746          45.375    24627087.187    96641999.663        1426.103          44.250  
E10  26471452.313   139108408.215       -2502.338          43.500    26471454.187   103879660.928       -1868.520          44.000  
E11  23971641.938   125971829.467       -1738.654          43.563    23971638.750    94069860.101       -1298.340          43.063  
E24  26836718.125   141027769.213       -2464.121          40.000    26836736.688   105313062.164       -1839.956          39.750  
E25  23501566.562   123501540.398        -436.909          46.313    23501566.687    92225195.524        -326.347          46.875  
E34  26934719.437   141543044.434        2400.885          39.625    26934734.312   105697740.098        1792.925          39.875  
E36  23522227.500   123610169.712         596.192          46.125    23522230.250    92306306.299         445.285          46.500  
C01  37110074.875   193241903.309          40.925          44.188  
C02  38347257.063   199684235.076          17.257          40.688  
C03  36932461.250   192317023.285          46.775          45.375  
C04  38126972.812   198537155.189          25.140          41.188  
C06  40157268.750   209109291.988       -1741.099          35.438  
C07  36078440.187   187869907.794         351.403          45.438  
C09  38939314.000   202767155.517       -1833.941          37.813  
C10  36703262.312   191123520.773         508.710          44.750  
C13  38882656.250   202472275.490        1478.084          40.688  
C16  40114216.063   208885110.865       -1698.860          33.563  
C19  25745002.688   134061146.302        2131.730          41.813  
C20  25821841.187   134461118.052         558.859          40.750  
C24  24798394.687   129131800.330        2322.623          26.938  
C26  22250605.188   115864733.162        -121.660          49.000  
C29  24290712.125   126488103.057       -2119.715          44.750  
C35  21816870.562   113606173.923        -435.797          49.188  
C38  37208362.750   193753742.546        1306.783          45.813  
C40  36287299.750   188957501.680         380.357          46.813  
C44  23964978.687   124791978.451        1610.803          45.500  
C45  23506436.063   122404116.322       -2838.491          45.563  
> 2023 02 16 09 21 04.0000000  0 36                     
G01  20256770.625   106450049.653       -1629.153          47.563    20256763.937    79491898.683       -1216.555          47.250  
G03  22385109.313   117634670.768        2525.757          42.813    22385112.312    87844025.127        1886.150          43.813  
G07  22741553.875   119507536.207       -3084.726          41.625                                                                  
G08  24118744.375   126744840.381       -2240.811          38.750    24118744.500    94647108.909       -1673.220          41.688  
G14  20917105.750   109920147.604        1923.046          44.875    20917102.688    82083218.175        1436.019          47.750  
G17  22266020.125   117008751.677        1294.657          43.813                                                                  
G19  24546492.500   128992692.398        2366.834          37.313                                                                  
G21  22567316.750   118592045.129       -2983.381          43.438                                                                  
G30  22076878.438   116014757.283       -1633.774          44.938    22076879.313    86634382.715       -1220.007          47.000  
E02  24626724.500   129414323.190        1909.779          45.313    24626723.750    96640573.651        1426.146          44.313  
E10  26471928.562   139110910.444       -2501.922          43.563    26471930.375   103881529.477       -1868.362          44.125  
E11  23971972.812   125973568.178       -1738.657          43.625    23971969.750    94071158.471       -1298.314          43.188  
E24  26837186.937   141030233.371       -2463.893          39.938    26837205.625   105314902.255       -1839.948          39.750  
E25  23501649.313   123501977.638        -437.029          46.125    23501649.937    92225522.063        -326.449          47.188  
E34  26934262.562   141540643.611        2401.094          39.563    26934277.438   105695947.290        1792.989          39.813  
E36  23522113.812   123609573.620         596.177          45.875    23522116.750    92305861.162         445.197          46.313  
C01  37110067.000   193241862.343          41.179          44.000  
C02  38347253.563   199684217.806          17.255          40.563  
C03  36932452.312   192316976.431          47.046          45.313  
C04  38126967.375   198537129.921          25.083          41.188  
C06  40157603.813   209111033.072       -1740.809          35.438  
C07  36078372.312   187869556.368         351.727          45.438  
C09  38939665.813   202768989.417       -1833.698          37.813  
C10  36703164.500   191123012.056         508.979          44.750  
C13  38882372.813   202470797.379        1478.336          40.688  
C16  40114542.125   208886809.697       -1698.521          33.688  
C19  25744593.437   134059014.651        2131.930          41.875  
C20  25821734.125   134460559.429         558.691          40.625  
C24  24797947.813   129129477.994        2322.397          27.125  
C26  22250629.000   115864855.144        -121.930          49.000  
C29  24291119.375   126490222.741       -2119.432          44.875  
C35  21816954.375   113606609.843        -435.720          49.125  
C38  37208112.062   193752435.859        1306.933          45.875  
C40  36287226.938   188957121.301         380.664          46.875  
C44  23964669.687   124790367.717        1610.917          45.500  
C45  23506981.250   122406954.959       -2838.475          45.625  
> 2023 02 16 09 21 05.0000000  0 36                     
G01  20257080.750   106451679.276       -1629.656          47.438    20257074.063    79493115.603       -1216.926          47.250  
G03  22384628.562   117632145.352        2525.392          42.813    22384631.563    87842139.276        1885.907          43.813  
G07  22742140.875   119510621.218       -3084.847          41.688                                                                  
G08  24119170.875   126747081.208       -2240.623          38.750    24119171.062    94648782.255       -1673.237          41.625  
G14  20916739.875   109918225.002        1922.706          45.000    20916736.625    82081782.469        1435.697          47.500  
G17  22265774.188   117007457.205        1294.580          43.875                                                                  
G19  24546041.813   128990325.822        2366.818          37.313                                                                  
G21  22567884.813   118595028.725       -2983.428          43.625                                                                  
G30  22077189.687   116016391.482       -1634.203          44.750    22077190.562    86635603.071       -1220.338          47.438  
E02  24626360.813   129412413.685        1909.627          45.375    24626360.375    96639147.716        1425.973          44.125  
E10  26472404.625   139113412.621       -2501.768          43.375    26472406.438   103883397.986       -1868.351          44.063  
E11  23972303.562   125975306.947       -1738.700          43.500    23972300.500    94072456.920       -1298.367          43.000  
E24  26837655.625   141032697.559       -2464.214          40.000    26837674.438   105316742.395       -1839.965          39.625  
E25  23501733.250   123502415.152        -437.393          46.313    23501733.188    92225848.769        -326.696          47.188  
E34  26933805.750   141538242.865        2400.875          39.438    26933820.688   105694154.577        1792.785          39.875  
E36  23522000.750   123608977.745         596.015          46.063    23522003.500    92305416.203         445.026          46.563  
C01  37110058.813   193241821.230          41.099          44.000  
C02  38347250.812   199684200.327          17.488          40.625  
C03  36932443.563   192316929.427          47.008          45.313  
C04  38126963.188   198537104.607          25.347          40.875  
C06  40157938.250   209112774.008       -1740.639          35.438  
C07  36078304.812   187869204.806         351.749          45.438  
C09  38940018.000   202770823.183       -1833.628          37.813  
C10  36703066.375   191122503.176         509.102          44.813  
C13  38882088.937   202469319.266        1478.286          40.750  
C16  40114868.500   208888508.260       -1698.455          33.688  
C19  25744183.500   134056882.985        2131.810          41.813  
C20  25821626.750   134460001.165         558.294          40.563  
C24  24797502.750   129127155.951        2322.364          27.000  
C26  22250652.313   115864977.554        -122.460          49.000  
C29  24291526.500   126492342.337       -2119.444          44.875  
C35  21817037.938   113607045.831        -435.886          49.063  
C38  37207861.188   193751129.220        1306.768          46.000  
C40  36287153.500   188956740.757         380.745          46.938  
C44  23964360.375   124788757.068        1610.784          45.500  
C45  23507526.187   122409793.730       -2838.687          45.563  
> 2023 02 16 09 21 06.0000000  0 36                     
G01  20257390.625   106453309.183       -1630.007          47.375    20257384.063    79494332.743       -1217.214          47.000  
G03  22384147.937   117629620.042        2525.208          42.875    22384150.875    87840253.515        1885.738          43.750  
G07  22742727.813   119513706.145       -3084.914          41.750                                                                  
G08  24119597.125   126749321.834       -2240.503          38.750    24119597.250    94650455.453       -1673.102          41.563  
G14  20916374.125   109916302.530        1922.439          45.063    20916370.938    82080346.858        1435.569          47.500  
G17  22265527.687   117006162.593        1294.667          43.813                                                                  
G19  24545591.688   128987959.023        2366.947          37.375                                                                  
G21  22568452.250   118598012.157       -2983.383          43.750                                                                  
G30  22077500.625   116018025.940       -1634.550          44.688    22077501.438    86636823.590       -1220.605          47.250  
E02  24625997.375   129410504.145        1909.643          45.250    24625997.125    96637721.771        1425.938          44.250  
E10  26472880.312   139115914.587       -2501.850          43.563    26472882.375   103885266.346       -1868.288          43.938  
E11  23972634.500   125977045.728       -1738.644          43.625    23972631.438    94073755.354       -1298.432          43.188  
E24  26838124.750   141035161.791       -2464.004          39.875    26838143.438   105318582.514       -1840.142          39.750  
E25  23501815.750   123502852.802        -437.607          46.375    23501816.313    92226175.571        -326.839          46.938  
E34  26933348.375   141535842.101        2400.941          39.500    26933363.875   105692361.805        1792.780          39.875  
E36  23521887.437   123608381.995         595.695          45.875    23521890.062    92304971.350         444.835          46.625  
C01  37110051.500   193241779.891          41.414          44.188  
C02  38347246.750   199684182.646          17.681          40.688  
C03  36932433.937   192316882.236          47.259          45.313  
C04  38126958.313   198537079.088          25.666          41.000  
C06  40158272.250   209114514.594       -1740.550          35.500  
C07  36078237.625   187868853.011         351.819          45.500  
C09  38940370.750   202772656.715       -1833.461          37.875  
C10  36702968.938   191121994.046         509.236          44.875  
C13  38881805.500   202467841.005        1478.259          40.750  
C16  40115194.563   208890206.591       -1698.354          33.750  
C19  25743774.375   134054751.238        2131.761          41.750  
C20  25821519.625   134459443.068         557.972          40.625  
C24  24797056.875   129124833.910        2321.960          27.125  
C26  22250675.688   115865100.250        -122.846          49.063  
C29  24291933.437   126494461.684       -2119.319          44.875  
C35  21817121.687   113607481.746        -435.922          49.063  
C38  37207610.187   193749822.461        1306.805          46.063  
C40  36287080.437   188956359.976         380.876          46.938  
C44  23964050.625   124787146.369        1610.708          45.563  
C45  23508071.500   122412632.544       -2838.813          45.688  
> 2023 02 16 09 21 07.0000000  0 36                     
G01  20257701.125   106454939.501       -1630.701          47.313    20257694.500    79495550.192       -1217.667          47.313  
G03  22383667.812   117627095.006        2524.701          42.938    22383670.563    87838367.940        1885.437          43.813  
G07  22743315.000   119516791.127       -3085.221          41.688                                                                  
G08  24120023.312   126751562.360       -2240.731          38.813    24120023.500    94652128.554       -1673.206          41.438  
G14  20916008.375   109914380.302        1921.869          45.000    20916005.375    82078911.425        1435.212          47.813  
G17  22265281.250   117004867.932        1294.436          44.000                                                                  
G19  24545141.625   128985592.079        2366.753          37.688                                                                  
G21  22569019.813   118600995.606       -2983.566          43.813                                                                  
G30  22077811.625   116019660.736       -1635.158          44.688    22077812.375    86638044.400       -1221.026          47.125  
E02  24625634.125   129408594.694        1909.364          45.125    24625633.813    96636295.876        1425.701          44.250  
E10  26473356.625   139118416.492       -2502.091          43.438    26473358.562   103887134.641       -1868.474          44.125  
E11  23972965.250   125978784.581       -1739.025          43.625    23972962.313    94075053.844       -1298.638          43.250  
E24  26838593.687   141037626.067       -2464.358          39.938    26838612.375   105320422.681       -1840.286          39.750  
E25  23501899.625   123503290.700        -438.166          46.438    23501899.688    92226502.582        -327.244          47.188  
E34  26932891.563   141533441.436        2400.621          39.563    26932907.125   105690569.120        1792.552          39.875  
E36  23521773.875   123607786.483         595.239          46.313    23521776.625    92304526.634         444.460          46.438  
C01  37110043.437   193241738.496          41.160          44.375  
C02  38347243.312   199684164.834          17.733          40.688  
C03  36932424.813   192316834.855          47.363          45.438  
C04  38126952.687   198537053.365          25.439          40.938  
C06  40158607.375   209116254.994       -1740.591          35.500  
C07  36078169.812   187868501.094         351.718          45.563  
C09  38940722.500   202774490.096       -1833.651          37.813  
C10  36702870.875   191121484.751         509.098          44.813  
C13  38881522.125   202466362.719        1478.120          40.813  
C16  40115520.187   208891904.620       -1698.240          33.750  
C19  25743365.063   134052619.524        2131.474          41.688  
C20  25821412.500   134458885.290         557.382          40.625  
C24  24796612.250   129122512.187        2321.430          27.250  
C26  22250699.562   115865223.382        -123.460          49.000  
C29  24292340.750   126496580.880       -2119.416          44.875  
C35  21817205.437   113607917.718        -436.215          49.063  
C38  37207359.375   193748515.692        1306.563          46.063  
C40  36287007.562   188955979.016         380.811          47.063  
C44  23963741.562   124785535.704        1610.433          45.563  
C45  23508616.813   122415471.498       -2839.176          45.750  
> 2023 02 16 09 21 08.0000000  0 36                     
G01  20258011.312   106456570.605       -1631.371          47.438    20258004.750    79496768.230       -1218.182          47.250  
G03  22383187.375   117624570.585        2524.184          42.938    22383190.125    87836482.843        1884.990          43.813  
G07  22743901.937   119519876.574       -3085.588          41.625                                                                  
G08  24120450.063   126753803.206       -2240.983          39.000    24120450.125    94653801.914       -1673.362          41.563  
G14  20915642.562   109912458.739        1921.342          45.250    20915639.500    82077476.486        1434.829          47.563  
G17  22265035.125   117003573.615        1294.280          43.875                                                                  
G19  24544691.063   128983225.542        2366.556          37.688                                                                  
G21  22569587.813   118603979.457       -2983.934          43.750                                                                  
G30  22078123.188   116021296.317       -1635.764          44.625    22078123.875    86639265.746       -1221.484          47.500  
E02  24625270.687   129406685.696        1908.841          45.313    24625270.438    96634870.333        1425.444          44.125  
E10  26473832.500   139120918.695       -2502.194          43.500    26473834.625   103889003.160       -1868.561          44.063  
E11  23973296.063   125980523.895       -1739.373          43.500    23973293.125    94076352.699       -1298.943          43.063  
E24  26839062.625   141040090.797       -2464.795          39.875    26839081.562   105322263.206       -1840.623          39.813  
E25  23501982.563   123503729.227        -438.721          46.625    23501983.250    92226830.048        -327.682          47.250  
E34  26932435.000   141531041.193        2399.977          39.500    26932450.500   105688776.746        1792.266          39.938  
E36  23521660.937   123607191.576         594.770          46.250    23521663.563    92304082.398         444.115          46.688  
C01  37110035.125   193241697.256          41.018          44.313  
C02  38347240.188   199684147.302          17.590          40.688  
C03  36932416.250   192316787.781          47.181          45.500  
C04  38126948.500   198537027.956          25.110          40.750  
C06  40158941.125   209117995.628       -1740.583          35.500  
C07  36078102.375   187868149.408         351.639          45.625  
C09  38941074.750   202776323.746       -1833.731          37.750  
C10  36702772.937   191120975.681         509.090          44.875  
C13  38881238.188   202464884.761        1477.908          40.688  
C16  40115847.063   208893602.893       -1698.306          33.813  
C19  25742955.625   134050488.209        2131.274          41.625  
C20  25821305.375   134458328.222         556.904          40.625  
C24  24796166.625   129120191.011        2320.846          27.500  
C26  22250723.187   115865347.310        -124.191          49.063  
C29  24292747.687   126498700.344       -2119.570          44.813  
C35  21817288.938   113608354.153        -436.580          49.000  
C38  37207108.563   193747209.340        1306.282          46.125  
C40  36286934.250   188955598.298         380.659          46.938  
C44  23963432.562   124783925.502        1610.077          45.438  
C45  23509161.812   122418310.963       -2839.614          45.750  
> 2023 02 16 09 21 09.0000000  0 36                     
G01  20258321.750   106458202.391       -1631.891          47.500    20258315.125    79497986.761       -1218.577          47.063  
G03  22382706.875   117622046.694        2523.887          42.875    22382709.625    87834598.149        1884.703          43.688  
G07  22744489.250   119522962.338       -3085.743          41.500                                                                  
G08  24120876.563   126756044.198       -2240.758          38.938    24120876.500    94655475.360       -1673.379          41.625  
G14  20915276.938   109910537.713        1921.047          45.000    20915273.875    82076041.961        1434.497          47.438  
G17  22264788.812   117002279.558        1294.107          44.000                                                                  
G19  24544240.625   128980859.143        2366.458          37.625                                                                  
G21  22570155.687   118606963.545       -2984.059          43.750                                                                  
G30  22078434.375   116022932.511       -1636.225          44.563    22078435.000    86640487.584       -1221.860          47.250  
E02  24624907.500   129404777.065        1908.779          45.063    24624907.187    96633445.052        1425.296          44.188  
E10  26474308.438   139123421.102       -2502.084          43.188    26474310.687   103890871.844       -1868.620          43.875  
E11  23973627.375   125982263.628       -1739.808          43.563    23973624.250    94077651.850       -1299.110          43.250  
E24  26839531.750   141042555.918       -2464.796          39.938    26839550.875   105324103.997       -1840.761          39.813  
E25  23502066.125   123504168.283        -439.037          46.375    23502066.750    92227157.927        -327.899          47.000  
E34  26931978.313   141528641.336        2399.650          39.625    26931993.750   105686984.656        1792.137          40.000  
E36  23521547.875   123606597.196         594.302          46.125    23521550.375    92303638.526         443.860          46.563  
C01  37110027.813   193241656.220          41.202          44.500  
C02  38347237.063   199684129.889          17.327          40.250  
C03  36932406.687   192316740.805          47.137          45.500  
C04  38126943.500   198537002.724          25.041          41.000  
C06  40159275.125   209119736.286       -1740.523          35.500  
C07  36078035.188   187867797.874         351.661          45.625  
C09  38941427.000   202778157.539       -1833.705          37.813  
C10  36702675.625   191120466.727         509.041          44.938  
C13  38880954.750   202463407.041        1477.873          40.688  
C16  40116173.625   208895301.174       -1698.211          33.813  
C19  25742546.500   134048357.190        2131.102          41.563  
C20  25821198.312   134457771.753         556.394          40.688  
C24  24795720.500   129117870.400        2320.560          27.438  
C26  22250746.938   115865471.959        -124.739          49.125  
C29  24293154.625   126500819.951       -2119.508          44.938  
C35  21817372.875   113608790.915        -436.735          48.875  
C38  37206857.438   193745903.278        1306.146          46.125  
C40  36286861.063   188955217.699         380.723          46.875  
C44  23963123.125   124782315.644        1609.895          45.375  
C45  23509707.437   122421150.861       -2839.882          45.813  
> 2023 02 16 09 21 10.0000000  0 36                     
G01  20258632.688   106459834.638       -1632.367          47.625    20258625.812    79499205.653       -1218.944          47.313  
G03  22382226.875   117619523.142        2523.464          42.875    22382229.563    87832713.685        1884.450          43.625  
G07  22745076.375   119526048.237       -3085.802          41.625                                                                  
G08  24121302.688   126758285.167       -2240.811          38.875    24121302.813    94657148.833       -1673.411          41.625  
G14  20914911.750   109908617.016        1920.678          44.938    20914908.625    82074607.674        1434.257          47.750  
G17  22264542.437   117000985.535        1294.073          44.188                                                                  
G19  24543790.625   128978492.733        2366.549          37.563                                                                  
G21  22570723.750   118609947.738       -2984.128          43.938                                                                  
G30  22078745.687   116024569.176       -1636.724          44.563    22078746.437    86641709.758       -1222.275          47.188  
E02  24624544.562   129402868.612        1908.561          45.438    24624544.000    96632019.923        1425.157          44.250  
E10  26474784.812   139125923.506       -2502.250          43.375    26474787.000   103892740.530       -1868.590          44.000  
E11  23973958.438   125984003.471       -1739.815          43.625    23973955.313    94078951.064       -1299.224          43.188  
E24  26840000.750   141045021.216       -2465.237          40.000    26840020.063   105325944.896       -1840.911          39.813  
E25  23502149.563   123504607.698        -439.459          46.000    23502150.500    92227486.045        -328.155          47.313  
E34  26931521.750   141526241.673        2399.757          39.750    26931537.063   105685192.711        1791.922          40.000  
E36  23521434.625   123606003.111         594.126          45.813    23521437.188    92303194.917         443.640          46.375  
C01  37110019.625   193241615.134          41.343          44.688  
C02  38347233.563   199684112.468          17.523          40.125  
C03  36932397.562   192316693.842          47.172          45.375  
C04  38126938.437   198536977.379          25.095          41.438  
C06  40159609.875   209121476.847       -1740.425          35.438  
C07  36077967.437   187867446.261         351.662          45.500  
C09  38941779.062   202779991.291       -1833.718          37.875  
C10  36702577.750   191119957.717         509.116          44.875  
C13  38880671.250   202461929.417        1477.712          40.688  
C16  40116499.313   208896999.371       -1698.069          33.813  
C19  25742137.312   134046226.262        2131.003          41.563  
C20  25821091.750   134457215.651         556.030          40.875  
C24  24795275.937   129115550.030        2320.226          27.438  
C26  22250771.313   115865597.091        -125.228          49.188  
C29  24293562.000   126502939.515       -2119.510          45.000  
C35  21817457.000   113609227.793        -436.857          48.938  
C38  37206606.625   193744597.303        1306.003          46.125  
C40  36286788.250   188954837.037         380.786          46.938  
C44  23962814.062   124780705.909        1609.757          45.438  
C45  23510252.750   122423990.979       -2840.124          45.875  
> 2023 02 16 09 21 11.0000000  0 36                     
G01  20258943.125   106461467.267       -1632.841          47.563    20258936.563    79500424.824       -1219.276          47.313  
G03  22381746.688   117616999.769        2523.179          42.875    22381749.562    87830829.369        1884.268          43.500  
G07  22745663.500   119529134.127       -3085.970          41.438                                                                  
G08  24121729.250   126760525.980       -2240.824          38.813    24121729.500    94658822.148       -1673.199          41.750  
G14  20914546.000   109906696.524        1920.293          45.000    20914542.937    82073173.543        1434.052          47.625  
G17  22264296.250   116999691.434        1294.088          44.188                                                                  
G19  24543340.187   128976126.213        2366.489          37.688                                                                  
G21  22571291.562   118612931.830       -2984.191          44.000                                                                  
G30  22079057.375   116026206.135       -1637.115          44.563    22079058.250    86642932.152       -1222.493          47.563  
E02  24624181.125   129400960.186        1908.398          45.438    24624180.687    96630594.806        1425.050          44.125  
E10  26475260.812   139128425.776       -2502.285          43.375    26475263.062   103894609.108       -1868.548          43.813  
E11  23974289.500   125985743.362       -1739.997          43.563    23974286.312    94080250.349       -1299.429          43.063  
E24  26840469.687   141047486.463       -2465.301          39.875    26840489.187   105327785.816       -1841.013          39.813  
E25  23502233.563   123505047.293        -439.763          46.438    23502234.187    92227814.312        -328.407          47.125  
E34  26931065.250   141523841.971        2399.750          39.563    26931080.500   105683400.755        1791.884          40.000  
E36  23521321.812   123605409.225         593.711          45.938    23521324.187    92302751.431         443.349          46.563  
C01  37110011.562   193241573.892          41.323          44.875  
C02  38347230.812   199684094.825          17.868          40.188  
C03  36932389.062   192316646.669          47.218          45.250  
C04  38126933.813   198536951.859          25.341          41.500  
C06  40159943.938   209123217.182       -1740.315          35.438  
C07  36077899.750   187867094.492         351.770          45.500  
C09  38942131.250   202781824.846       -1833.579          37.813  
C10  36702479.750   191119448.536         509.250          44.875  
C13  38880387.250   202460451.635        1477.750          40.625  
C16  40116825.312   208898697.275       -1697.949          33.813  
C19  25741727.812   134044095.327        2130.850          41.438  
C20  25820985.125   134456659.827         555.702          40.813  
C24  24794829.500   129113229.915        2320.058          27.688  
C26  22250795.187   115865722.600        -125.701          49.125  
C29  24293968.812   126505058.907       -2119.403          45.063  
C35  21817540.562   113609664.688        -436.987          48.938  
C38  37206356.000   193743291.281        1305.926          46.188  
C40  36286714.875   188954456.164         380.823          47.000  
C44  23962505.187   124779096.170        1609.658          45.438  
C45  23510797.937   122426831.188       -2840.316          45.875  
> 2023 02 16 09 21 12.0000000  0 36                     
G01  20259253.875   106463100.520       -1633.535          47.500    20259247.250    79501644.450       -1219.838          47.125  
G03  22381266.500   117614476.885        2522.708          42.813    22381269.375    87828945.419        1883.808          43.500  
G07  22746251.062   119532220.335       -3086.321          41.188                                                                  
G08  24122155.438   126762766.892       -2240.915          38.813    24122155.812    94660495.569       -1673.417          41.688  
G14  20914180.625   109904776.536        1919.816          45.125    20914177.438    82071739.782        1433.581          47.438  
G17  22264049.938   116998397.525        1293.833          44.188                                                                  
G19  24542889.938   128973759.832        2366.198          37.500                                                                  
G21  22571859.313   118615916.202       -2984.422          44.063                                                                  
G30  22079368.875   116027843.682       -1637.846          44.438    22079369.750    86644154.999       -1223.078          47.313  
E02  24623817.937   129399052.101        1907.918          45.188    24623817.687    96629169.930        1424.771          44.188  
E10  26475736.875   139130928.234       -2502.307          43.313    26475739.187   103896477.810       -1868.738          43.813  
E11  23974620.875   125987483.558       -1740.241          43.375    23974617.500    94081549.825       -1299.642          43.188  
E24  26840938.875   141049952.095       -2465.607          39.750    26840958.500   105329626.995       -1841.214          39.875  
E25  23502316.813   123505487.379        -440.339          46.438    23502317.812    92228142.946        -328.745          46.938  
E34  26930608.750   141521442.602        2399.735          39.625    26930623.875   105681609.023        1791.559          39.938  
E36  23521209.000   123604815.789         593.318          46.375    23521211.438    92302308.288         443.018          46.688  
C01  37110003.875   193241532.748          41.092          44.938  
C02  38347227.125   199684077.386          17.871          40.188  
C03  36932379.875   192316599.584          46.873          45.438  
C04  38126928.938   198536926.510          25.195          41.625  
C06  40160278.063   209124957.505       -1740.430          35.563  
C07  36077832.437   187866742.829         351.586          45.500  
C09  38942483.625   202783658.523       -1833.712          37.813  
C10  36702382.250   191118939.402         509.129          44.813  
C13  38880103.812   202458974.081        1477.450          40.625  
C16  40117151.687   208900395.280       -1698.063          33.750  
C19  25741318.500   134041964.653        2130.556          41.375  
C20  25820878.125   134456104.550         555.122          40.750  
C24  24794384.000   129110910.163        2319.578          27.625  
C26  22250819.250   115865848.769        -126.406          49.063  
C29  24294375.625   126507178.376       -2119.617          45.000  
C35  21817624.625   113610101.871        -437.288          49.063  
C38  37206104.875   193741985.532        1305.648          46.063  
C40  36286641.625   188954075.359         380.760          46.938  
C44  23962195.750   124777486.736        1609.304          45.375  
C45  23511343.875   122429671.778       -2840.736          45.750  
> 2023 02 16 09 21 13.0000000  0 36                     
G01  20259565.000   106464734.456       -1634.033          47.563    20259558.438    79502864.608       -1220.196          47.438  
G03  22380786.875   117611954.541        2522.269          42.875    22380789.437    87827061.861        1883.507          43.625  
G07  22746838.313   119535306.848       -3086.489          41.125                                                                  
G08  24122581.687   126765007.972       -2241.022          38.750    24122582.187    94662169.112       -1673.388          41.688  
G14  20913815.562   109902857.070        1919.371          45.188    20913812.375    82070306.428        1433.350          47.813  
G17  22263803.500   116997103.855        1293.774          44.125                                                                  
G19  24542439.812   128971393.631        2366.293          37.500                                                                  
G21  22572427.375   118618900.822       -2984.550          44.313                                                                  
G30  22079680.687   116029481.915       -1638.248          44.438    22079681.500    86645378.322       -1223.406          47.250  
E02  24623455.187   129397144.372        1907.701          45.375    24623454.875    96627745.320        1424.651          44.250  
E10  26476213.312   139133430.869       -2502.542          43.313    26476215.563   103898346.660       -1868.809          43.938  
E11  23974952.000   125989224.141       -1740.522          43.438    23974948.562    94082849.617       -1299.792          43.125  
E24  26841407.875   141052418.067       -2466.044          39.813    26841427.688   105331468.437       -1841.394          39.875  
E25  23502400.937   123505927.999        -440.601          46.188    23502401.688    92228471.979        -329.041          47.250  
E34  26930152.312   141519043.620        2399.137          39.563    26930167.313   105679817.590        1791.444          39.938  
E36  23521096.000   123604222.881         592.847          46.000    23521098.500    92301865.523         442.699          46.563  
C01  37109995.938   193241491.750          41.220          44.750  
C02  38347223.625   199684059.939          17.445          40.500  
C03  36932370.750   192316552.704          46.913          45.500  
C04  38126924.000   198536901.327          25.427          41.625  
C06  40160612.813   209126697.904       -1740.293          35.563  
C07  36077764.750   187866391.305         351.611          45.563  
C09  38942835.375   202785492.296       -1833.660          37.750  
C10  36702284.375   191118430.414         509.064          44.813  
C13  38879820.250   202457496.739        1477.349          40.688  
C16  40117477.000   208902093.338       -1697.909          33.750  
C19  25740909.437   134039834.274        2130.501          41.313  
C20  25820771.937   134455549.841         554.594          40.750  
C24  24793939.437   129108590.975        2319.205          27.813  
C26  22250844.000   115865975.638        -126.973          49.125  
C29  24294783.125   126509298.003       -2119.568          45.063  
C35  21817708.750   113610539.388        -437.493          48.938  
C38  37205854.438   193740680.043        1305.521          46.063  
C40  36286568.875   188953694.711         380.750          46.813  
C44  23961886.813   124775877.642        1609.101          45.250  
C45  23511889.187   122432512.801       -2840.994          45.875  
> 2023 02 16 09 21 14.0000000  0 36                     
G01  20259875.875   106466369.155       -1634.721          47.625    20259869.375    79504085.327       -1220.718          47.375  
G03  22380306.937   117609432.820        2521.749          42.875    22380309.625    87825178.746        1883.118          43.750  
G07  22747425.813   119538393.790       -3086.854          41.063                                                                  
G08  24123008.812   126767249.320       -2241.160          38.750    24123009.063    94663842.842       -1673.581          41.813  
G14  20913450.312   109900938.224        1918.821          45.125    20913447.188    82068873.518        1432.845          47.625  
G17  22263557.438   116995810.500        1293.470          44.125                                                                  
G19  24541989.250   128969027.690        2366.033          37.563                                                                  
G21  22572995.437   118621885.804       -2984.857          44.188                                                                  
G30  22079992.688   116031120.819       -1638.920          44.438    22079993.500    86646602.198       -1223.885          47.500  
E02  24623092.188   129395237.082        1907.237          45.063    24623091.875    96626321.050        1424.333          44.125  
E10  26476689.250   139135933.764       -2502.734          43.438    26476691.750   103900215.720       -1868.953          43.813  
E11  23975283.000   125990965.137       -1740.813          43.500    23975279.875    94084149.729       -1300.007          43.000  
E24  26841877.125   141054884.446       -2466.537          39.375    26841897.063   105333310.175       -1841.711          39.938  
E25  23502484.750   123506369.219        -441.289          46.000    23502485.625    92228801.462        -329.429          47.250  
E34  26929696.063   141516645.070        2398.639          39.438    26929710.875   105678026.483        1791.195          40.000  
E36  23520983.437   123603630.550         592.382          45.938    23520985.937    92301423.202         442.336          46.688  
C01  37109987.937   193241451.006          40.860          44.813  
C02  38347220.562   199684042.934          17.028          40.438  
C03  36932362.125   192316506.009          46.676          45.125  
C04  38126919.750   198536876.309          25.234          41.750  
C06  40160946.375   209128438.556       -1740.362          35.500  
C07  36077697.250   187866040.013         351.459          45.688  
C09  38943188.125   202787326.309       -1833.865          37.750  
C10  36702186.375   191117921.652         508.981          44.750  
C13  38879536.125   202456019.729        1477.152          40.750  
C16  40117803.500   208903791.556       -1698.031          33.875  
C19  25740500.125   134037704.263        2130.071          41.250  
C20  25820665.500   134454995.815         554.036          40.750  
C24  24793494.937   129106272.345        2318.633          28.000  
C26  22250868.312   115866103.272        -127.690          49.125  
C29  24295190.000   126511417.869       -2119.683          45.063  
C35  21817792.500   113610977.315        -437.859          48.875  
C38  37205603.937   193739374.933        1305.233          46.000  
C40  36286495.500   188953314.234         380.644          46.813  
C44  23961578.063   124774268.960        1608.795          45.125  
C45  23512434.750   122435354.292       -2841.461          45.813  
> 2023 02 16 09 21 15.0000000  0 36                     
G01  20260186.875   106468004.428       -1635.105          47.375    20260180.438    79505306.471       -1221.077          47.188  
G03  22379826.875   117606911.478        2521.499          42.813    22379829.625    87823295.962        1882.922          43.625  
G07  22748013.625   119541480.953       -3086.839          41.313                                                                  
G08  24123434.875   126769490.698       -2241.022          38.875    24123435.438    94665516.597       -1673.581          41.625  
G14  20913085.062   109899019.794        1918.598          45.250    20913082.063    82067440.932        1432.696          47.500  
G17  22263311.375   116994517.282        1293.509          44.188                                                                  
G19  24541538.750   128966661.864        2366.115          37.438                                                                  
G21  22573563.250   118624870.922       -2984.865          44.188                                                                  
G30  22080304.688   116032760.249       -1639.317          44.688    22080305.312    86647826.448       -1224.161          47.313  
E02  24622729.062   129393330.030        1907.271          45.063    24622729.062    96624896.980        1424.272          44.125  
E10  26477165.438   139138436.773       -2502.685          43.125    26477168.000   103902084.841       -1868.906          43.813  
E11  23975614.688   125992706.401       -1741.000          43.938    23975611.437    94085450.002       -1300.028          43.188  
E24  26842346.562   141057351.122       -2466.053          39.688    26842366.562   105335152.118       -1841.737          40.000  
E25  23502568.750   123506810.844        -441.440          46.000    23502569.438    92229131.264        -329.554          47.000  
E34  26929239.875   141514246.719        2398.635          39.438    26929254.437   105676235.550        1791.191          39.938  
E36  23520870.750   123603038.616         592.177          46.063    23520873.250    92300981.169         442.225          46.625  
C01  37109980.500   193241410.250          40.936          44.438  
C02  38347217.250   199684025.831          17.290          40.438  
C03  36932352.750   192316459.389          46.837          45.250  
C04  38126914.688   198536851.361          25.175          42.063  
C06  40161280.750   209130179.077       -1740.089          35.500  
C07  36077629.875   187865688.750         351.577          45.688  
C09  38943540.125   202789160.344       -1833.692          37.875  
C10  36702089.063   191117412.824         509.173          44.813  
C13  38879252.437   202454542.833        1477.159          40.750  
C16  40118130.187   208905489.649       -1697.826          34.000  
C19  25740090.750   134035408.4193       2130.180          41.125  
C20  25820559.000   134454442.267         553.694          40.813  
C24  24793051.125   129103954.125        2318.389          28.250  
C26  22250892.875   115866231.501        -128.115          49.188  
C29  24295596.813   126513537.754       -2119.546          45.000  
C35  21817876.688   113611415.450        -437.835          48.500  
C38  37205353.187   193738069.991        1305.240          46.125  
C40  36286422.312   188952933.761         380.850          46.563  
C44  23961269.000   124772660.516        1608.647          45.250  
C45  23512980.875   122438196.096       -2841.540          45.750  
> 2023 02 16 09 21 16.0000000  0 36                     
G01  20260498.437   106469639.749       -1635.364          47.313    20260491.813    79506527.651       -1221.161          47.500  
G03  22379347.125   117604390.036        2521.446          42.875    22379349.813    87821413.102        1882.918          43.625  
G07  22748600.875   119544567.843       -3086.796          41.375                                                                  
G08  24123861.687   126771731.687       -2240.825          38.875    24123861.938    94667190.066       -1673.256          41.688  
G14  20912720.313   109897101.300        1918.482          45.188    20912717.250    82066008.283        1432.717          47.813  
G17  22263065.187   116993223.670        1293.726          44.188                                                                  
G19  24541088.813   128964295.614        2366.369          37.375                                                                  
G21  22574131.500   118627855.741       -2984.624          44.000                                                                  
G30  22080616.625   116034399.747       -1639.475          44.875    22080617.250    86649050.736       -1224.251          47.250  
E02  24622366.250   129391422.759        1907.468          45.125    24622366.313    96623472.717        1424.308          44.313  
E10  26477641.875   139140939.356       -2502.565          43.250    26477644.312   103903953.672       -1868.685          44.063  
E11  23975945.812   125994447.423       -1740.980          43.688    23975942.688    94086750.104       -1300.043          43.188  
E24  26842815.875   141059817.470       -2466.484          39.625    26842835.812   105336993.848       -1841.672          39.938  
E25  23502652.687   123507252.412        -441.473          46.063    23502653.562    92229460.997        -329.746          47.250  
E34  26928783.312   141511848.133        2398.592          39.500    26928797.875   105674444.424        1791.216          40.000  
E36  23520757.812   123602446.576         591.953          46.000    23520760.438    92300539.064         442.117          46.375  
C01  37109972.438   193241369.077          41.133          44.438  
C02  38347213.062   199684008.274          17.763          40.563  
C03  36932343.688   192316412.303          47.285          45.313  
C04  38126909.625   198536825.961          25.447          41.813  
C06  40161614.813   209131919.130       -1739.812          35.625  
C07  36077562.312   187865337.008         351.895          45.688  
C09  38943891.875   202790993.947       -1833.572          37.813  
C10  36701991.312   191116903.553         509.430          44.938  
C13  38878968.875   202453065.519        1477.398          40.813  
C16  40118455.625   208907187.263       -1697.401          33.938  
C19  25739681.938   134033278.290        2130.185          41.188  
C20  25820452.875   134453888.679         553.510          40.813  
C24  24792607.313   129101635.818        2318.472          28.375  
C26  22250917.875   115866359.812        -128.345          49.313  
C29  24296004.250   126515657.198       -2119.278          45.063  
C35  21817960.875   113611853.334        -437.789          48.563  
C38  37205102.563   193736764.726        1305.352          46.125  
C40  36286349.500   188952552.823         381.079          46.688  
C44  23960960.000   124771051.766        1608.841          45.375  
C45  23513526.188   122441037.728       -2841.548          45.750  
> 2023 02 16 09 21 17.0000000  0 36                     
G01  20260809.500   106471275.896       -1636.466          47.313    20260803.125    79507749.444       -1222.059          47.313  
G03  22378867.375   117601869.294        2520.464          43.000    22378870.125    87819530.705        1882.197          43.750  
G07  22749188.250   119547655.161       -3087.511          41.500                                                                  
G08  24124288.000   126773972.973       -2241.429          38.875    24124288.562    94668863.750       -1673.860          41.750  
G14  20912355.250   109895183.467        1917.522          45.250    20912352.250    82064576.122        1431.934          47.688  
G17  22262819.250   116991930.454        1293.031          44.188                                                                  
G19  24540638.625   128961929.659        2365.806          37.500                                                                  
G21  22574699.563   118630840.928       -2985.311          43.938                                                                  
G30  22080928.875   116036039.969       -1640.583          44.813    22080929.562    86650275.564       -1225.116          47.500  
E02  24622003.250   129389515.945        1906.625          45.188    24622003.312    96622048.788        1423.759          44.188  
E10  26478117.875   139143442.296       -2503.081          43.188    26478120.437   103905822.718       -1869.171          43.813  
E11  23976277.062   125996188.889       -1741.616          43.563    23976274.063    94088050.592       -1300.643          43.125  
E24  26843285.250   141062284.387       -2467.069          39.563    26843305.250   105338835.963       -1842.231          39.938  
E25  23502737.125   123507694.618        -442.462          46.000    23502737.812    92229791.205        -330.425          47.188  
E34  26928327.125   141509450.049        2397.933          39.813    26928341.500   105672653.639        1790.660          40.000  
E36  23520645.438   123601855.176         591.276          46.125    23520647.938    92300097.449         441.441          46.625  
C01  37109964.125   193241328.141          40.841          44.688  
C02  38347210.500   199683991.058          17.396          40.563  
C03  36932335.188   192316365.471          46.763          45.250  
C04  38126905.250   198536800.868          25.002          41.625  
C06  40161949.063   209133659.333       -1740.427          35.625  
C07  36077494.625   187864985.542         351.297          45.688  
C09  38944244.563   202792827.810       -1833.991          37.813  
C10  36701893.187   191116394.526         508.907          45.063  
C13  38878684.562   202451588.634        1476.734          40.875  
C16  40118781.938   208908885.078       -1697.825          33.875  
C19  25739272.750   134031148.580        2129.484          41.125  
C20  25820346.500   134453335.837         552.600          40.688  
C24  24792162.750   129099318.181        2317.266          28.688  
C26  22250942.500   115866488.955        -129.467          49.375  
C29  24296410.875   126517776.916       -2119.871          45.000  
C35  21818044.875   113612291.656        -438.530          48.563  
C38  37204852.188   193735459.877        1304.621          46.063  
C40  36286276.187   188952172.131         380.586          46.750  
C44  23960651.313   124769443.511        1608.034          45.250  
C45  23514071.938   122443879.868       -2842.367          45.875  
> 2023 02 16 09 21 18.0000000  0 36                     
G01  20261120.937   106472912.621       -1636.363          47.438    20261114.500    79508971.692       -1221.980          47.125  
G03  22378387.875   117599348.959        2520.781          42.875    22378390.500    87817648.674        1882.365          43.625  
G07  22749776.250   119550742.764       -3087.091          41.500                                                                  
G08  24124714.688   126776214.351       -2240.826          38.875    24124714.875    94670537.485       -1673.314          41.688  
G14  20911990.250   109893266.068        1917.816          45.188    20911987.187    82063144.319        1432.102          47.500  
G17  22262573.250   116990637.371        1293.588          44.438                                                                  
G19  24540187.812   128959563.840        2366.409          37.688                                                                  
G21  22575267.562   118633826.303       -2984.830          43.938                                                                  
G30  22081240.813   116037680.762       -1640.437          44.875    22081241.750    86651500.833       -1225.001          47.313  
E02  24621640.250   129387609.431        1907.129          45.250    24621640.437    96620625.097        1424.105          44.188  
E10  26478594.250   139145945.287       -2502.490          43.125    26478596.875   103907691.881       -1868.784          43.813  
E11  23976608.750   125997930.672       -1741.194          43.563    23976605.688    94089351.240       -1300.307          43.313  
E24  26843754.875   141064751.515       -2466.565          39.375    26843774.813   105340678.269       -1841.913          40.000  
E25  23502820.875   123508137.263        -442.113          46.188    23502821.938    92230121.765        -330.208          46.875  
E34  26927870.875   141507052.236        2398.297          39.313    26927885.187   105670863.089        1791.027          40.000  
E36  23520533.000   123601264.211         591.343          46.063    23520535.438    92299656.111         441.671          46.750  
C01  37109956.625   193241287.311          41.147          44.813  
C02  38347206.813   199683973.892          17.505          40.500  
C03  36932325.875   192316318.741          47.174          45.375  
C04  38126900.062   198536775.791          25.383          41.563  
C06  40162283.437   209135399.584       -1739.747          35.438  
C07  36077427.500   187864634.154         351.913          45.625  
C09  38944596.875   202794661.725       -1833.425          37.813  
C10  36701795.750   191115885.530         509.544          45.063  
C13  38878400.687   202450111.879        1477.303          40.875  
C16  40119107.813   208910582.874       -1697.205          33.813  
C19  25738863.312   134029019.076        2129.994          41.063  
C20  25820240.313   134452783.484         552.771          40.625  
C24  24791718.375   129097000.895        2317.023          28.875  
C26  22250967.375   115866618.708        -129.419          49.438  
C29  24296818.063   126519896.676       -2119.284          45.000  
C35  21818129.250   113612730.221        -438.048          48.625  
C38  37204601.375   193734155.236        1305.108          46.063  
C40  36286203.187   188951791.463         381.220          46.813  
C44  23960342.375   124767835.469        1608.504          45.313  
C45  23514618.063   122446722.367       -2842.060          45.875  
> 2023 02 16 09 21 19.0000000  0 36                     
G01  20261432.562   106474549.120       -1636.603          47.438    20261426.313    79510193.741       -1222.167          47.500  
G03  22377908.062   117596828.244        2520.657          42.875    22377910.875    87815766.335        1882.243          43.625  
G07  22750363.625   119553829.750       -3086.975          41.563                                                                  
G08  24125141.313   126778454.978       -2240.482          38.938    24125141.437    94672210.684       -1673.142          41.750  
G14  20911625.500   109891348.309        1917.724          45.063    20911622.375    82061712.220        1432.029          47.625  
G17  22262326.875   116989343.624        1293.753          44.313                                                                  
G19  24539737.812   128957197.287        2366.519          37.875                                                                  
G21  22575835.812   118636811.041       -2984.686          44.063                                                                  
G30  22081553.312   116039321.277       -1640.641          44.750    22081554.062    86652725.890       -1225.150          47.438  
E02  24621277.563   129385702.362        1907.212          45.250    24621277.625    96619200.979        1424.088          44.375  
E10  26479070.375   139148447.610       -2502.386          43.000    26479073.375   103909560.474       -1868.601          43.938  
E11  23976939.813   125999671.873       -1741.180          43.438    23976937.000    94090651.501       -1300.298          43.125  
E24  26844224.062   141067218.073       -2466.729          39.563    26844244.062   105342520.168       -1841.837          39.938  
E25  23502905.375   123508579.551        -442.265          46.125    23502906.312    92230452.034        -330.360          47.313  
E34  26927414.063   141504653.883        2398.284          39.438    26927428.562   105669072.081        1791.044          39.875  
E36  23520420.312   123600672.827         591.296          46.125    23520422.687    92299214.502         441.538          46.563  
C01  37109948.688   193241245.683          41.619          44.563  
C02  38347203.062   199683955.867          17.746          40.625  
C03  36932316.500   192316271.210          47.350          45.125  
C04  38126894.563   198536749.924          25.728          41.813  
C06  40162617.625   209137138.943       -1739.407          35.500  
C07  36077359.875   187864281.971         352.139          45.500  
C09  38944949.062   202796494.894       -1833.232          37.813  
C10  36701697.812   191115375.787         509.858          45.063  
C13  38878117.125   202448634.450        1477.476          41.063  
C16  40119433.250   208912279.877       -1697.016          33.875  
C19  25738454.562   134026888.959        2130.049          41.063  
C20  25820134.687   134452230.803         552.584          40.625  
C24  24791275.000   129094683.207        2317.207          29.313  
C26  22250992.625   115866748.241        -129.695          49.563  
C29  24297225.313   126522015.687       -2118.995          45.063  
C35  21818213.500   113613168.218        -438.018          48.688  
C38  37204350.750   193732849.969        1305.245          46.063  
C40  36286130.250   188951410.013         381.485          46.875  
C44  23960033.563   124766226.880        1608.567          45.250  
C45  23515163.562   122449564.375       -2842.009          45.813  
> 2023 02 16 09 21 20.0000000  0 36                     
G01  20261743.812   106476186.033       -1637.458          47.500    20261737.625    79511416.111       -1222.757          47.250  
G03  22377428.625   117594307.794        2519.897          42.875    22377431.500    87813884.196        1881.778          43.688  
G07  22750950.938   119556916.808       -3087.458          41.688                                                                  
G08  24125567.688   126780695.529       -2241.080          38.938    24125568.000    94673883.810       -1673.361          41.750  
G14  20911260.625   109889430.802        1917.002          45.000    20911257.500    82060280.328        1431.575          47.625  
G17  22262080.875   116988049.860        1293.391          44.188                                                                  
G19  24539287.688   128954830.611        2366.183          38.000                                                                  
G21  22576403.500   118639795.797       -2985.155          44.063                                                                  
G30  22081865.562   116040962.180       -1641.466          44.938    22081866.375    86653951.235       -1225.731          47.625  
E02  24620914.625   129383795.399        1906.446          45.250    24620914.625    96617776.953        1423.734          44.250  
E10  26479546.250   139150949.847       -2502.799          43.188    26479549.625   103911429.054       -1868.874          43.813  
E11  23977271.125   126001413.180       -1741.674          43.500    23977268.312    94091951.824       -1300.694          42.938  
E24  26844693.688   141069684.792       -2467.208          39.313    26844713.562   105344362.139       -1842.287          39.938  
E25  23502989.188   123509022.082        -442.879          46.000    23502990.625    92230782.489        -330.863          47.313  
E34  26926957.750   141502255.558        2397.700          39.563    26926972.250   105667281.172        1790.572          39.875  
E36  23520307.937   123600081.653         590.699          46.250    23520310.312    92298773.072         441.043          46.625  
C01  37109940.313   193241204.001          41.405          44.750  
C02  38347200.250   199683937.811          17.764          40.375  
C03  36932307.937   192316223.617          47.097          45.188  
C04  38126890.063   198536724.057          25.851          41.750  
C06  40162951.437   209138878.216       -1739.715          35.500  
C07  36077292.062   187863929.720         351.872          45.438  
C09  38945300.937   202798327.927       -1833.401          37.750  
C10  36701599.813   191114865.908         509.517          45.000  
C13  38877832.938   202447157.036        1477.023          41.000  
C16  40119759.375   208913976.610       -1697.111          33.875  
C19  25738045.562   134024758.906        2129.667          41.000  
C20  25820028.375   134451678.493         551.835          40.563  
C24  24790830.188   129092365.731        2317.077          29.500  
C26  22251017.375   115866878.236        -130.510          49.375  
C29  24297632.125   126524134.586       -2119.265          45.063  
C35  21818297.437   113613606.296        -438.501          48.813  
C38  37204100.500   193731544.736        1304.752          46.188  
C40  36286056.813   188951028.443         381.178          46.875  
C44  23959724.875   124764618.366        1608.078          45.188  
C45  23515709.438   122452406.542       -2842.596          45.875  
> 2023 02 16 09 21 21.0000000  0 36                     
G01  20262055.563   106477823.910       -1637.981          47.500    20262049.187    79512639.211       -1223.229          47.188  
G03  22376949.063   117591788.173        2519.594          42.813    22376951.812    87812002.677        1881.448          43.625  
G07  22751538.563   119560004.496       -3087.619          41.500                                                                  
G08  24125994.063   126782936.553       -2240.967          38.875    24125994.250    94675557.310       -1673.513          41.750  
G14  20910895.813   109887514.136        1916.609          45.063    20910892.687    82058849.056        1431.187          47.500  
G17  22261834.875   116986756.631        1293.272          44.125                                                                  
G19  24538836.813   128952464.522        2366.134          37.938                                                                  
G21  22576971.250   118642781.108       -2985.291          44.000                                                                  
G30  22082177.750   116042604.014       -1641.965          45.000    22082178.625    86655177.265       -1226.123          47.313  
E02  24620551.625   129381889.099        1906.491          45.125    24620551.875    96616353.430        1423.498          44.250  
E10  26480022.625   139153452.637       -2502.825          43.000    26480026.063   103913297.983       -1868.926          43.875  
E11  23977602.875   126003155.161       -1741.949          43.250    23977599.875    94093252.656       -1300.817          43.188  
E24  26845163.375   141072152.086       -2467.266          39.313    26845183.125   105346204.578       -1842.424          40.063  
E25  23503073.813   123509465.433        -443.459          46.188    23503074.875    92231113.583        -331.114          47.063  
E34  26926501.312   141499857.869        2397.622          39.563    26926516.125   105665490.720        1790.371          39.875  
E36  23520195.625   123599491.335         590.405          46.125    23520198.188    92298332.250         440.848          46.750  
C01  37109932.750   193241162.747          41.261          44.688  
C02  38347196.937   199683920.210          17.696          40.375  
C03  36932298.437   192316176.451          47.060          45.375  
C04  38126884.750   198536698.622          25.625          41.688  
C06  40163285.875   209140617.738       -1739.582          35.563  
C07  36077224.812   187863577.868         351.898          45.563  
C09  38945653.125   202800161.437       -1833.403          37.563  
C10  36701502.187   191114356.410         509.570          44.875  
C13  38877549.437   202445680.127        1476.947          41.000  
C16  40120085.437   208915673.791       -1697.195          33.813  
C19  25737636.250   134022629.416        2129.460          40.813  
C20  25819922.000   134451127.017         551.363          40.438  
C24  24790386.562   129090049.148        2316.491          29.813  
C26  22251042.438   115867009.218        -131.126          49.375  
C29  24298039.250   126526253.919       -2119.316          44.938  
C35  21818381.813   113614044.976        -438.651          48.750  
C38  37203849.562   193730240.070        1304.612          46.063  
C40  36285983.625   188950647.281         381.244          46.750  
C44  23959415.750   124763010.471        1607.899          45.063  
C45  23516255.500   122455249.415       -2842.914          45.813  
> 2023 02 16 09 21 22.0000000  0 36                     
G01  20262367.500   106479462.554       -1639.172          47.313    20262361.188    79513862.869       -1223.903          47.500  
G03  22376469.688   117589269.154        2518.486          42.813    22376472.375    87810121.595        1880.859          43.563  
G07  22752126.000   119563092.573       -3088.445          41.375                                                                  
G08  24126420.562   126785177.802       -2241.614          38.938    24126420.812    94677230.985       -1673.762          41.813  
G14  20910531.375   109885598.089        1915.504          45.063    20910528.125    82057418.242        1430.600          47.688  
G17  22261588.625   116985463.689        1292.707          44.000                                                                  
G19  24538386.875   128950098.626        2365.610          37.938                                                                  
G21  22577539.750   118645766.737       -2985.910          43.813                                                                  
G30  22082490.500   116044246.546       -1642.922          44.875    22082491.188    86656403.830       -1226.817          47.438  
E02  24620189.187   129379983.219        1905.457          45.063    24620189.312    96614930.191        1423.049          44.375  
E10  26480499.062   139155955.649       -2503.221          43.125    26480502.500   103915167.109       -1869.295          44.000  
E11  23977934.125   126004897.561       -1742.804          43.313    23977931.313    94094553.799       -1301.447          43.063  
E24  26845632.687   141074619.852       -2468.282          39.375    26845652.625   105348047.348       -1843.085          39.938  
E25  23503157.938   123509909.410        -444.548          46.063    23503159.375    92231445.115        -331.932          47.375  
E34  26926044.812   141497460.708        2396.868          39.375    26926059.875   105663700.661        1789.923          39.875  
E36  23520083.125   123598901.585         589.125          46.125    23520085.875    92297891.836         440.059          46.500  
C01  37109925.125   193241121.724          40.839          44.688  
C02  38347193.188   199683902.759          17.487          40.500  
C03  36932289.125   192316129.490          46.841          45.313  
C04  38126879.875   198536673.315          24.876          41.813  
C06  40163620.000   209142357.488       -1739.960          35.563  
C07  36077157.125   187863226.229         351.415          45.563  
C09  38946005.312   202801995.101       -1834.101          37.625  
C10  36701404.375   191113847.113         508.941          44.875  
C13  38877265.937   202444203.507        1476.344          40.938  
C16  40120411.000   208917371.024       -1697.368          33.625  
C19  25737227.312   134020500.294        2128.868          40.688  
C20  25819816.375   134450576.191         550.400          40.563  
C24  24789942.000   129087732.982        2315.752          29.938  
C26  22251068.125   115867140.943        -132.165          49.375  
C29  24298446.250   126528373.468       -2119.869          44.875  
C35  21818466.187   113614484.055        -439.574          48.750  
C38  37203598.937   193728935.760        1303.919          46.125  
C40  36285910.875   188950266.280         380.580          46.813  
C44  23959106.750   124761402.976        1607.230          44.938  
C45  23516801.375   122458092.777       -2843.746          45.875  
> 2023 02 16 09 21 23.0000000  0 36                     
G01  20262679.438   106481102.712       -1639.881          47.063    20262673.187    79515087.668       -1224.656          47.375  
G03  22375990.812   117586751.497        2517.978          42.938    22375993.437    87808241.547        1880.239          43.625  
G07  22752713.750   119566181.846       -3088.843          41.375                                                                  
G08  24126846.937   126787420.056       -2241.779          39.000    24126847.500    94678905.382       -1674.158          41.750  
G14  20910166.937   109883683.408        1915.044          45.125    20910163.875    82055988.450        1430.005          47.813  
G17  22261342.812   116984171.839        1292.188          43.813                                                                  
G19  24537937.000   128947733.806        2365.300          37.625                                                                  
G21  22578107.875   118648753.508       -2986.328          43.750                                                                  
G30  22082803.312   116045890.568       -1643.805          44.813    22082804.188    86657631.512       -1227.495          47.563  
E02  24619826.812   129378078.543        1905.002          45.125    24619826.937    96613507.896        1422.546          44.313  
E10  26480975.375   139158459.678       -2503.741          43.250    26480978.813   103917037.028       -1869.543          43.813  
E11  23978265.813   126006641.132       -1743.163          43.313    23978263.000    94095855.832       -1301.671          42.938  
E24  26846102.750   141077088.787       -2468.724          39.063    26846122.687   105349891.003       -1843.304          39.938  
E25  23503243.188   123510354.724        -445.142          46.125    23503244.063    92231777.649        -332.269          47.250  
E34  26925589.000   141495064.679        2396.287          39.500    26925604.000   105661911.437        1789.509          39.813  
E36  23519971.250   123598313.177         588.846          46.250    23519973.938    92297452.437         439.714          46.625  
C01  37109916.813   193241081.633          40.392          44.875  
C02  38347190.563   199683886.349          16.851          40.500  
C03  36932281.000   192316083.519          46.412          45.438  
C04  38126875.813   198536649.031          24.381          41.938  
C06  40163953.812   209144098.083       -1740.185          35.500  
C07  36077089.500   187862875.588         351.076          45.563  
C09  38946357.750   202803829.782       -1834.202          37.625  
C10  36701306.562   191113338.805         508.792          44.938  
C13  38876982.438   202442727.955        1475.955          41.000  
C16  40120737.437   208919069.253       -1697.857          33.750  
C19  25736819.125   134018372.322        2128.319          40.688  
C20  25819711.062   134450026.855         549.638          40.563  
C24  24789497.812   129085418.331        2314.936          30.125  
C26  22251093.437   115867274.224        -133.066          49.438  
C29  24298853.062   126530493.994       -2120.091          44.875  
C35  21818550.500   113614924.331        -439.803          48.750  
C38  37203349.125   193727632.584        1303.628          46.188  
C40  36285837.625   188949886.269         380.539          46.875  
C44  23958798.687   124759796.646        1606.656          45.000  
C45  23517347.688   122460937.383       -2844.246          45.813  
> 2023 02 16 09 21 24.0000000  0 36                     
G01  20262991.438   106482742.393       -1639.066          47.063    20262985.312    79516312.097       -1223.993          47.313  
G03  22375511.750   117584233.206        2518.914          43.125    22375514.187    87806361.011        1880.990          43.688  
G07  22753301.562   119569270.294       -3087.706          41.375                                                                  
G08  24127273.437   126789661.385       -2240.463          39.125    24127274.000    94680579.102       -1673.132          41.688  
G14  20909802.500   109881768.107        1915.899          45.313    20909799.375    82054558.195        1430.751          47.625  
G17  22261096.938   116982879.109        1293.505          44.000                                                                  
G19  24537486.562   128945367.997        2366.536          37.750                                                                  
G21  22578676.187   118651739.405       -2985.100          43.625                                                                  
G30  22083115.938   116047534.095       -1642.927          44.875    22083116.937    86658858.803       -1226.782          47.375  
E02  24619464.125   129376173.099        1906.094          45.063    24619464.438    96612084.981        1423.403          44.250  
E10  26481451.937   139160962.808       -2502.370          43.313    26481455.250   103918906.231       -1868.583          44.063  
E11  23978597.688   126008383.961       -1742.137          43.500    23978594.750    94097157.301       -1300.897          43.125  
E24  26846572.375   141079556.947       -2467.644          39.250    26846592.500   105351734.074       -1842.456          40.000  
E25  23503326.937   123510799.438        -444.120          46.188    23503328.875    92232109.741        -331.680          47.063  
E34  26925132.875   141492667.931        2397.450          39.438    26925148.062   105660121.623        1790.335          40.000  
E36  23519859.375   123597724.126         589.720          46.563    23519861.937    92297012.583         440.393          46.813  
C01  37109909.313   193241040.574          41.518          44.875  
C02  38347187.000   199683868.990          18.004          40.500  
C03  36932271.438   192316036.588          47.533          45.375  
C04  38126870.687   198536623.818          25.584          41.938  
C06  40164288.750   209145837.710       -1738.764          35.500  
C07  36077022.312   187862523.959         352.429          45.500  
C09  38946710.000   202805663.462       -1832.945          37.688  
C10  36701209.250   191112829.463         510.109          45.000  
C13  38876698.500   202441251.527        1477.207          41.125  
C16  40121063.313   208920766.402       -1696.352          33.750  
C19  25736409.875   134016243.525        2129.581          40.625  
C20  25819605.125   134449476.924         550.577          40.563  
C24  24789053.500   129083102.943        2315.979          30.313  
C26  22251118.938   115867407.059        -132.220          49.438  
C29  24299260.312   126532613.531       -2118.784          45.000  
C35  21818635.062   113615363.789        -438.727          48.750  
C38  37203098.500   193726328.560        1304.762          46.250  
C40  36285764.250   188949505.244         381.850          46.875  
C44  23958490.125   124758189.536        1607.870          45.063  
C45  23517894.063   122463781.283       -2843.193          45.813  
> 2023 02 16 09 21 25.0000000  0 36                     
G01  20263303.500   106484381.694       -1639.917          47.063    20263297.500    79517536.254       -1224.599          47.563  
G03  22375032.188   117581714.387        2518.227          43.063    22375034.688    87804480.099        1880.464          43.688  
G07  22753888.938   119572357.992       -3088.170          41.250                                                                  
G08  24127700.188   126791901.806       -2240.813          39.063    24127700.562    94682252.143       -1673.427          41.750  
G14  20909438.062   109879852.291        1915.264          45.438    20909434.875    82053127.551        1430.223          47.625  
G17  22260850.750   116981585.508        1293.091          44.188                                                                  
G19  24537036.313   128943001.363        2366.192          37.688                                                                  
G21  22579244.437   118654724.476       -2985.599          43.500                                                                  
G30  22083428.688   116049177.174       -1643.757          44.813    22083429.750    86660085.784       -1227.417          47.563  
E02  24619101.500   129374266.926        1905.534          45.250    24619101.938    96610661.569        1422.975          44.500  
E10  26481928.250   139163465.034       -2502.663          43.375    26481931.438   103920774.779       -1868.884          44.063  
E11  23978929.000   126010126.043       -1742.590          43.563    23978926.187    94098458.200       -1301.300          43.063  
E24  26847041.812   141082024.408       -2467.979          39.500    26847062.125   105353576.608       -1842.890          40.063  
E25  23503412.437   123511243.604        -444.810          46.125    23503413.688    92232441.435        -332.154          47.438  
E34  26924676.562   141490270.373        2397.150          39.438    26924691.812   105658331.281        1789.930          40.000  
E36  23519747.000   123597134.514         589.114          46.375    23519749.562    92296572.285         439.908          46.563  
C01  37109901.125   193240998.643          41.545          44.875  
C02  38347182.750   199683850.627          17.944          40.500  
C03  36932261.875   192315988.722          47.427          45.250  
C04  38126865.375   198536597.663          25.725          42.063  
C06  40164622.875   209147576.328       -1739.315          35.375  
C07  36076954.500   187862171.408         352.089          45.625  
C09  38947061.875   202807496.202       -1833.242          37.688  
C10  36701111.250   191112319.199         509.790          45.000  
C13  38876415.063   202439774.296        1476.808          41.188  
C16  40121389.000   208922462.535       -1696.621          33.563  
C19  25736001.000   134014113.956        2129.065          40.500  
C20  25819499.750   134448926.511         549.812          40.500  
C24  24788609.188   129080786.975        2315.325          30.313  
C26  22251144.625   115867539.532        -133.158          49.313  
C29  24299667.375   126534732.176       -2119.097          45.000  
C35  21818719.500   113615802.503        -439.212          48.750  
C38  37202847.813   193725023.760        1304.333          46.250  
C40  36285691.187   188949123.272         381.550          46.875  
C44  23958180.937   124756581.683        1607.337          45.063  
C45  23518439.875   122466624.534       -2843.775          45.813  
> 2023 02 16 09 21 26.0000000  0 36                     
G01  20263615.375   106486021.831       -1640.568          47.188    20263609.375    79518761.017       -1225.089          47.375  
G03  22374553.312   117579196.240        2517.833          43.063    22374555.625    87802599.661        1880.116          43.813  
G07  22754476.750   119575446.170       -3088.537          41.188                                                                  
G08  24128126.437   126794142.535       -2240.994          38.813    24128127.062    94683925.411       -1673.546          41.688  
G14  20909073.563   109877937.159        1914.781          45.375    20909070.562    82051697.419        1429.850          47.875  
G17  22260604.687   116980292.327        1292.852          44.063                                                                  
G19  24536586.062   128940635.006        2366.123          37.688                                                                  
G21  22579812.375   118657709.995       -2985.786          43.375                                                                  
G30  22083741.562   116050821.050       -1644.366          44.938    22083742.500    86661313.333       -1227.881          47.563  
E02  24618738.937   129372361.291        1905.283          45.500    24618739.375    96609238.529        1422.765          44.438  
E10  26482404.437   139165967.623       -2502.986          43.563    26482407.625   103922643.585       -1869.046          43.813  
E11  23979260.625   126011868.650       -1742.783          43.688    23979257.812    94099759.499       -1301.547          43.063  
E24  26847511.812   141084492.338       -2468.272          39.688    26847531.937   105355419.521       -1843.098          40.188  
E25  23503496.063   123511688.471        -445.137          46.250    23503498.375    92232773.618        -332.451          47.438  
E34  26924220.313   141487873.384        2396.736          39.188    26924235.750   105656541.335        1789.641          40.000  
E36  23519635.063   123596545.561         588.717          46.125    23519637.563    92296132.492         439.543          46.625  
C01  37109892.813   193240956.984          41.533          44.750  
C02  38347179.688   199683832.621          17.998          40.563  
C03  36932253.750   192315941.144          47.429          45.063  
C04  38126860.312   198536571.824          25.738          41.875  
C06  40164956.000   209149315.133       -1739.030          35.438  
C07  36076886.813   187861819.151         352.010          45.750  
C09  38947414.125   202809329.280       -1833.263          37.688  
C10  36701013.125   191111809.190         509.712          45.000  
C13  38876131.438   202438297.391        1476.624          41.188  
C16  40121715.688   208924158.804       -1696.643          33.563  
C19  25735592.250   134011984.819        2128.744          40.375  
C20  25819394.312   134448376.845         549.305          40.563  
C24  24788164.563   129078471.724        2314.938          30.563  
C26  22251170.063   115867672.844        -133.739          49.188  
C29  24300074.063   126536851.096       -2119.234          45.063  
C35  21818803.625   113616241.696        -439.514          48.813  
C38  37202597.688   193723719.384        1304.087          46.250  
C40  36285617.688   188948741.557         381.474          46.875  
C44  23957872.500   124754974.318        1607.042          45.063  
C45  23518986.125   122469468.334       -2844.161          45.938  
> 2023 02 16 09 21 27.0000000  0 36                     
G01  20263927.812   106487662.878       -1641.535          47.125    20263921.688    79519986.478       -1225.780          47.375  
G03  22374074.125   117576678.847        2516.978          43.188    22374076.500    87800719.823        1879.536          43.750  
G07  22755064.688   119578534.945       -3089.122          41.313                                                                  
G08  24128552.875   126796383.700       -2241.321          39.000    24128553.375    94685599.003       -1673.789          41.688  
G14  20908709.063   109876022.799        1914.018          45.563    20908706.125    82050267.872        1429.239          47.688  
G17  22260358.875   116978999.619        1292.427          44.188                                                                  
G19  24536135.563   128938269.105        2365.612          37.750                                                                  
G21  22580380.438   118660696.019       -2986.294          43.313                                                                  
G30  22084054.500   116052465.800       -1645.118          44.813    22084055.375    86662541.549       -1228.552          47.313  
E02  24618376.187   129370456.266        1904.624          45.375    24618376.813    96607815.932        1422.331          44.375  
E10  26482881.125   139168470.669       -2503.408          43.625    26482884.063   103924512.726       -1869.319          44.000  
E11  23979592.500   126013611.859       -1743.326          43.500    23979589.563    94101061.243       -1301.969          43.188  
E24  26847981.500   141086960.907       -2468.741          39.375    26848001.688   105357262.868       -1843.540          40.188  
E25  23503581.500   123512134.084        -446.102          45.938    23503583.062    92233106.390        -333.001          47.188  
E34  26923764.312   141485476.957        2395.968          39.313    26923779.750   105654751.814        1789.318          40.000  
E36  23519523.188   123595957.373         587.805          46.000    23519525.625    92295693.257         439.012          46.750  
C01  37109885.562   193240915.736          41.264          44.813  
C02  38347176.438   199683815.031          17.452          40.438  
C03  36932244.187   192315894.013          47.015          44.813  
C04  38126855.750   198536546.310          25.682          42.125  
C06  40165290.313   209151054.251       -1739.486          35.500  
C07  36076819.500   187861467.275         351.578          45.813  
C09  38947765.937   202811162.707       -1833.734          37.625  
C10  36700915.187   191111299.554         509.443          45.000  
C13  38875847.813   202436821.039        1476.089          41.188  
C16  40122041.188   208925855.499       -1696.996          33.438  
C19  25735182.938   134009856.219        2128.292          40.188  
C20  25819288.625   134447828.018         548.303          40.500  
C24  24787719.750   129076157.171        2314.125          30.938  
C26  22251195.812   115867807.103        -134.772          49.125  
C29  24300481.312   126538970.396       -2119.594          45.125  
C35  21818888.250   113616681.465        -440.085          48.813  
C38  37202347.125   193722415.533        1303.523          46.250  
C40  36285544.187   188948360.214         381.058          46.875  
C44  23957564.000   124753367.516        1606.475          45.188  
C45  23519532.438   122472312.816       -2844.860          45.875  
> 2023 02 16 09 21 28.0000000  0 36                     
G01  20264240.313   106489304.700       -1641.800          46.875    20264234.187    79521212.520       -1226.017          47.563  
G03  22373594.938   117574162.091        2516.836          43.313    22373597.375    87798840.450        1879.396          43.500  
G07  22755652.750   119581624.121       -3089.040          41.375                                                                  
G08  24128979.812   126798625.050       -2241.164          39.125    24128980.062    94687272.742       -1673.671          41.813  
G14  20908344.938   109874109.061        1913.852          45.500    20908341.937    82048838.793        1429.097          47.625  
G17  22260112.750   116977707.239        1292.517          44.125                                                                  
G19  24535685.500   128935903.521        2365.668          37.688                                                                  
G21  22580948.750   118663682.417       -2986.187          43.313                                                                  
G30  22084367.875   116054111.281       -1645.464          44.875    22084368.625    86663770.316       -1228.761          47.563  
E02  24618013.750   129368551.683        1904.740          45.250    24618014.437    96606393.689        1422.328          44.438  
E10  26483357.438   139170973.958       -2503.232          43.563    26483360.375   103926382.096       -1869.244          44.000  
E11  23979924.125   126015355.550       -1743.281          43.375    23979921.188    94102363.332       -1301.912          43.125  
E24  26848451.375   141089429.900       -2469.072          39.563    26848471.500   105359106.598       -1843.507          40.125  
E25  23503665.812   123512580.331        -446.138          46.375    23503668.063    92233439.618        -333.132          47.500  
E34  26923308.375   141483081.020        2395.938          39.063    26923323.687   105652962.652        1789.200          40.063  
E36  23519411.187   123595369.781         587.683          46.375    23519413.687    92295254.472         438.847          46.563  
C01  37109877.438   193240874.713          41.226          44.750  
C02  38347172.625   199683797.622          17.694          40.750  
C03  36932235.125   192315847.075          46.971          44.688  
C04  38126850.750   198536521.117          25.198          41.938  
C06  40165624.062   209152793.649       -1739.163          35.500  
C07  36076751.750   187861115.636         351.779          45.813  
C09  38948117.750   202812996.403       -1833.531          37.625  
C10  36700817.375   191110790.139         509.623          45.063  
C13  38875564.813   202435344.955        1476.221          41.250  
C16  40122366.938   208927552.329       -1696.516          33.500  
C19  25734774.188   134007728.020        2128.252          40.125  
C20  25819183.313   134447279.872         548.134          40.500  
C24  24787275.563   129073843.267        2314.062          31.188  
C26  22251222.000   115867942.145        -135.043          49.188  
C29  24300888.375   126541089.962       -2119.437          45.125  
C35  21818972.688   113617121.665        -440.056          48.938  
C38  37202096.563   193721112.072        1303.658          46.125  
C40  36285471.312   188947979.096         381.325          47.063  
C44  23957255.313   124751761.156        1606.497          45.063  
C45  23520078.562   122475157.790       -2844.864          45.875  
> 2023 02 16 09 21 29.0000000  0 36                     
G01  20264552.437   106490946.602       -1641.984          47.063    20264546.500    79522438.630       -1226.144          47.375  
G03  22373116.125   117571645.273        2516.840          43.250    22373118.438    87796960.999        1879.400          43.563  
G07  22756241.125   119584713.030       -3088.918          41.438                                                                  
G08  24129405.938   126800866.006       -2240.755          39.375    24129406.500    94688946.166       -1673.408          41.750  
G14  20907980.875   109872195.289        1913.837          45.500    20907977.938    82047409.671        1429.120          47.938  
G17  22259866.937   116976414.504        1292.787          44.000                                                                  
G19  24535235.687   128933537.487        2366.106          37.688                                                                  
G21  22581516.875   118666668.468       -2986.016          43.438                                                                  
G30  22084680.875   116055756.821       -1645.638          45.000    22084681.625    86664999.113       -1228.848          47.500  
E02  24617651.312   129366646.877        1904.910          45.438    24617652.000    96604971.276        1422.455          44.500  
E10  26483833.625   139173476.910       -2502.850          43.375    26483836.625   103928251.143       -1869.040          43.875  
E11  23980255.875   126017099.017       -1743.200          43.250    23980252.938    94103665.263       -1301.826          43.063  
E24  26848921.438   141091898.685       -2468.615          39.750    26848941.437   105360950.057       -1843.452          40.125  
E25  23503751.500   123513026.503        -446.218          46.500    23503752.875    92233772.796        -333.169          47.438  
E34  26922852.313   141480684.825        2396.167          39.313    26922867.687   105651173.298        1789.334          40.000  
E36  23519299.562   123594782.087         587.786          46.125    23519301.875    92294815.627         438.876          46.688  
C01  37109869.188   193240833.228          41.500          44.813  
C02  38347169.875   199683779.799          18.209          40.563  
C03  36932226.688   192315799.701          47.213          44.875  
C04  38126845.938   198536495.488          25.825          41.813  
C06  40165958.375   209154532.435       -1738.723          35.563  
C07  36076684.125   187860763.546         352.123          45.813  
C09  38948470.312   202814829.628       -1833.111          37.563  
C10  36700719.313   191110280.254         509.983          45.000  
C13  38875281.437   202433868.506        1476.531          41.250  
C16  40122692.312   208929248.672       -1696.094          33.375  
C19  25734365.563   134005599.518        2128.505          40.125  
C20  25819078.000   134446731.693         548.138          40.438  
C24  24786831.375   129071529.238        2314.036          31.500  
C26  22251247.750   115868077.298        -135.233          49.125  
C29  24301295.125   126543209.060       -2119.026          45.063  
C35  21819057.000   113617561.598        -439.889          48.813  
C38  37201846.438   193719808.311        1303.841          46.125  
C40  36285398.063   188947597.512         381.712          47.000  
C44  23956947.000   124750154.518        1606.662          45.000  
C45  23520625.187   122478002.607       -2844.790          45.875  
> 2023 02 16 09 21 30.0000000  0 36                     
G01  20264865.188   106492588.861       -1642.729          47.313    20264859.063    79523664.981       -1226.715          47.438  
G03  22372637.188   117569128.650        2516.354          43.125    22372639.688    87795081.728        1878.922          43.625  
G07  22756828.750   119587801.978       -3089.296          41.500                                                                  
G08  24129832.188   126803106.809       -2240.956          39.438    24129832.812    94690619.472       -1673.604          41.750  
G14  20907616.563   109870281.719        1913.276          45.563    20907613.500    82045980.703        1428.687          47.688  
G17  22259621.125   116975121.692        1292.464          44.063                                                                  
G19  24534785.125   128931171.377        2365.873          37.563                                                                  
G21  22582085.375   118669654.476       -2986.331          43.563                                                                  
G30  22084994.000   116057402.646       -1646.290          45.063    22084994.687    86666228.153       -1229.407          47.313  
E02  24617288.687   129364742.130        1904.432          45.313    24617289.437    96603548.883        1422.125          44.438  
E10  26484310.250   139175979.676       -2503.048          43.438    26484313.062   103930120.123       -1869.214          44.063  
E11  23980587.813   126018842.464       -1743.693          43.375    23980584.750    94104967.205       -1302.048          43.063  
E24  26849391.250   141094367.420       -2469.012          39.500    26849411.250   105362793.614       -1843.750          40.063  
E25  23503835.687   123513472.880        -446.741          46.375    23503837.688    92234106.150        -333.664          47.188  
E34  26922396.750   141478288.665        2396.265          39.313    26922411.750   105649383.975        1789.099          40.063  
E36  23519187.813   123594194.595         587.310          46.125    23519190.063    92294376.918         438.478          46.750  
C01  37109861.563   193240791.610          41.464          44.875  
C02  38347166.062   199683761.830          17.895          40.500  
C03  36932217.187   192315752.192          47.074          45.000  
C04  38126841.187   198536469.627          25.728          41.625  
C06  40166292.563   209156270.995       -1738.810          35.625  
C07  36076616.813   187860411.269         351.989          45.813  
C09  38948822.125   202816662.681       -1833.278          37.500  
C10  36700621.437   191109770.181         509.800          44.938  
C13  38874998.000   202432392.017        1476.231          41.250  
C16  40123017.812   208930944.673       -1696.297          33.438  
C19  25733956.625   134003471.008        2128.173          40.125  
C20  25818972.375   134446183.836         547.476          40.375  
C24  24786387.125   129069215.427        2313.406          31.563  
C26  22251273.750   115868212.827        -135.982          49.250  
C29  24301702.313   126545328.009       -2119.214          45.125  
C35  21819141.687   113618001.536        -440.205          48.875  
C38  37201595.875   193718504.507        1303.514          46.188  
C40  36285324.625   188947215.708         381.577          47.000  
C44  23956638.375   124748547.924        1606.287          44.938  
C45  23521171.437   122480847.500       -2845.250          45.875  
> 2023 02 16 09 21 31.0000000  0 36                     
G01  20265177.812   106494231.730       -1642.938          47.375    20265171.812    79524891.790       -1226.881          47.625  
G03  22372158.312   117566612.481        2516.154          43.063    22372160.812    87793202.800        1878.922          43.688  
G07  22757416.438   119590891.154       -3089.101          41.625                                                                  
G08  24130259.000   126805347.680       -2240.841          39.438    24130259.500    94692292.879       -1673.340          41.875  
G14  20907252.500   109868368.588        1913.096          45.438    20907249.312    82044552.065        1428.599          47.563  
G17  22259375.062   116973829.056        1292.685          44.188                                                                  
G19  24534335.250   128928805.330        2366.187          37.625                                                                  
G21  22582653.875   118672640.684       -2986.146          43.625                                                                  
G30  22085307.625   116059049.063       -1646.496          45.125    22085308.250    86667457.607       -1229.502          47.688  
E02  24616926.313   129362837.641        1904.736          45.500    24616927.063    96602126.716        1422.225          44.438  
E10  26484786.312   139178482.605       -2502.963          43.438    26484789.375   103931989.193       -1869.029          44.000  
E11  23980919.562   126020586.218       -1743.721          43.563    23980916.437    94106269.337       -1302.107          42.875  
E24  26849861.000   141096836.499       -2468.963          39.188    26849881.063   105364637.346       -1843.685          40.063  
E25  23503921.500   123513919.722        -446.722          46.000    23503922.875    92234439.816        -333.674          47.438  
E34  26921940.937   141475892.759        2395.779          39.188    26921955.813   105647594.852        1789.199          40.000  
E36  23519075.875   123593607.506         587.082          45.938    23519078.187    92293938.511         438.402          46.500  
C01  37109853.500   193240750.073          41.634          44.625  
C02  38347162.625   199683743.872          18.113          40.563  
C03  36932207.812   192315704.707          47.354          45.188  
C04  38126836.125   198536443.917          25.724          41.750  
C06  40166626.312   209158009.612       -1738.548          35.625  
C07  36076549.000   187860059.055         352.284          45.750  
C09  38949173.875   202818495.802       -1832.947          37.438  
C10  36700523.750   191109260.130         510.153          44.813  
C13  38874715.000   202430915.695        1476.375          41.313  
C16  40123343.938   208932640.797       -1695.987          33.438  
C19  25733547.750   134001342.731        2128.375          40.000  
C20  25818867.750   134445636.456         547.328          40.313  
C24  24785944.000   129066902.021        2313.342          31.813  
C26  22251300.125   115868348.968        -136.226          49.313  
C29  24302109.188   126547446.973       -2118.946          45.125  
C35  21819226.250   113618441.729        -440.136          48.813  
C38  37201345.500   193717200.925        1303.650          46.250  
C40  36285251.625   188946833.953         381.844          47.000  
C44  23956329.625   124746941.567        1606.414          44.750  
C45  23521717.438   122483692.750       -2845.220          45.938  
> 2023 02 16 09 21 32.0000000  0 36                     
G01  20265490.438   106495875.233       -1644.114          47.438    20265484.375    79526119.093       -1227.695          47.375  
G03  22371679.625   117564096.821        2515.058          43.063    22371682.125    87791324.212        1878.190          43.625  
G07  22758004.750   119593980.624       -3089.927          41.438                                                                  
G08  24130685.188   126807588.703       -2241.405          39.500    24130685.875    94693966.380       -1673.833          41.875  
G14  20906888.688   109866456.004        1912.055          45.625    20906885.687    82043123.838        1427.853          47.875  
G17  22259128.938   116972536.607        1292.014          44.375                                                                  
G19  24533884.937   128926439.446        2365.546          37.688                                                                  
G21  22583221.937   118675627.139       -2986.793          43.625                                                                  
G30  22085620.750   116060696.072       -1647.535          45.063    22085621.500    86668687.510       -1230.304          47.563  
E02  24616564.125   129360933.497        1903.795          45.500    24616564.688    96600704.789        1421.603          44.563  
E10  26485262.437   139180985.681       -2503.411          43.375    26485265.687   103933858.365       -1869.542          43.750  
E11  23981251.625   126022330.293       -1744.650          43.500    23981248.313    94107571.736       -1302.768          42.938  
E24  26850331.250   141099305.872       -2469.775          39.438    26850351.125   105366481.389       -1844.247          40.125  
E25  23504006.375   123514367.058        -447.786          46.125    23504007.938    92234773.856        -334.420          47.313  
E34  26921485.063   141473497.183        2395.281          39.563    26921499.813   105645805.967        1788.494          39.938  
E36  23518964.375   123593020.936         586.087          46.000    23518966.562    92293500.487         437.595          46.625  
C01  37109845.312   193240708.627          41.171          44.750  
C02  38347159.312   199683726.111          17.469          40.625  
C03  36932199.125   192315657.351          47.127          45.125  
C04  38126831.250   198536418.254          25.616          41.938  
C06  40166960.063   209159748.171       -1739.011          35.563  
C07  36076481.000   187859706.962         351.742          45.625  
C09  38949526.062   202820329.017       -1833.657          37.625  
C10  36700425.563   191108750.199         509.518          44.813  
C13  38874431.625   202429439.553        1475.734          41.250  
C16  40123669.375   208934336.853       -1696.332          33.438  
C19  25733139.313   133999214.722        2127.558          39.938  
C20  25818762.813   134445089.630         546.170          40.188  
C24  24785500.313   129064589.085        2312.295          31.938  
C26  22251326.188   115868485.790        -137.365          49.375  
C29  24302516.062   126549566.105       -2119.437          45.125  
C35  21819310.562   113618882.230        -440.921          48.938  
C38  37201095.438   193715897.592        1302.895          46.313  
C40  36285178.000   188946452.297         381.265          46.938  
C44  23956021.375   124745335.519        1605.642          44.813  
C45  23522264.250   122486538.379       -2846.062          45.875  
> 2023 02 16 09 21 33.0000000  0 36                     
G01  20265803.563   106497520.018       -1645.005          47.375    20265797.563    79527347.337       -1228.268          47.500  
G03  22371201.250   117561582.251        2514.334          42.938    22371203.688    87789446.486        1877.620          43.688  
G07  22758592.500   119597071.004       -3090.474          41.375                                                                  
G08  24131111.750   126809830.489       -2241.872          39.500    24131112.250    94695640.430       -1673.917          41.813  
G14  20906524.750   109864544.523        1911.259          45.563    20906521.813    82041696.425        1427.410          47.625  
G17  22258883.375   116971244.984        1291.638          44.438                                                                  
G19  24533434.750   128924074.377        2365.195          37.688                                                                  
G21  22583790.375   118678614.412       -2987.287          43.563                                                                  
G30  22085934.438   116062344.306       -1648.370          45.250    22085935.063    86669918.333       -1230.884          47.375  
E02  24616201.812   129359030.299        1902.940          45.438    24616202.375    96599283.584        1421.279          44.438  
E10  26485739.125   139183489.550       -2503.954          43.313    26485742.188   103935728.151       -1869.717          43.938  
E11  23981583.625   126024075.290       -1745.214          43.500    23981580.625    94108874.832       -1303.193          43.063  
E24  26850801.375   141101776.253       -2470.401          39.375    26850821.187   105368326.045       -1844.815          40.063  
E25  23504091.562   123514815.492        -448.578          46.188    23504093.125    92235108.754        -335.090          46.750  
E34  26921029.250   141471102.568        2394.465          39.000    26921044.125   105644017.795        1788.187          40.000  
E36  23518853.250   123592435.454         585.374          46.125    23518855.313    92293063.281         437.101          46.813  
C01  37109838.000   193240667.943          40.770          44.688  
C02  38347156.000   199683709.014          17.240          40.563  
C03  36932189.938   192315610.744          46.828          45.375  
C04  38126826.500   198536393.370          25.080          41.875  
C06  40167294.250   209161487.496       -1739.117          35.688  
C07  36076413.812   187859355.610         351.454          45.563  
C09  38949878.188   202822163.000       -1833.952          37.625  
C10  36700327.750   191108240.958         509.218          44.813  
C13  38874148.063   202427964.244        1475.289          41.250  
C16  40123995.188   208936033.545       -1696.508          33.250  
C19  25732730.438   133997087.572        2127.179          39.875  
C20  25818657.562   134444543.983         545.464          40.188  
C24  24785056.062   129062277.204        2311.578          32.125  
C26  22251352.562   115868623.893        -138.218          49.313  
C29  24302923.250   126551685.933       -2119.767          45.125  
C35  21819395.625   113619323.651        -441.527          48.938  
C38  37200845.250   193714595.120        1302.377          46.250  
C40  36285104.625   188946071.333         380.912          46.875  
C44  23955713.312   124743730.393        1605.110          44.813  
C45  23522810.750   122489385.013       -2846.694          45.875  
> 2023 02 16 09 21 34.0000000  0 36                     
G01  20266116.625   106499165.451       -1644.962          47.313    20266110.750    79528576.065       -1228.402          47.625  
G03  22370722.562   117559068.181        2514.531          42.813    22370725.125    87787569.128        1877.789          43.625  
G07  22759180.437   119600161.720       -3090.102          41.375                                                                  
G08  24131538.563   126812072.420       -2241.356          39.438    24131539.125    94697314.600       -1673.743          42.000  
G14  20906161.187   109862633.550        1911.435          45.188    20906158.125    82040269.414        1427.406          47.500  
G17  22258637.500   116969953.596        1292.009          44.563                                                                  
G19  24532984.562   128921709.452        2365.569          37.688                                                                  
G21  22584358.813   118681601.973       -2986.948          43.750                                                                  
G30  22086248.562   116063993.150       -1648.396          45.063    22086249.063    86671149.604       -1230.903          47.688  
E02  24615839.750   129357127.461        1903.449          45.250    24615840.250    96597862.621        1421.390          44.500  
E10  26486215.375   139185993.603       -2503.526          43.563    26486218.562   103937598.062       -1869.410          43.875  
E11  23981915.688   126025820.655       -1744.767          43.313    23981912.625    94110178.177       -1302.925          43.000  
E24  26851271.500   141104246.897       -2469.930          39.250    26851291.312   105370171.005       -1844.556          40.063  
E25  23504177.125   123515264.472        -448.488          45.875    23504178.563    92235444.011        -334.918          47.188  
E34  26920573.375   141468708.286        2394.826          39.000    26920588.438   105642229.890        1788.321          40.000  
E36  23518741.813   123591850.449         585.468          45.813    23518744.000    92292626.425         437.169          46.563  
C01  37109830.125   193240627.373          40.876          44.813  
C02  38347152.500   199683692.113          17.410          40.438  
C03  36932180.813   192315564.271          47.028          45.625  
C04  38126821.375   198536368.636          25.114          41.688  
C06  40167628.125   209163226.781       -1738.688          35.563  
C07  36076346.188   187859004.389         351.949          45.500  
C09  38950230.375   202823997.027       -1833.401          37.625  
C10  36700230.000   191107731.828         509.734          44.875  
C13  38873865.063   202426489.140        1475.740          41.250  
C16  40124321.500   208937730.410       -1696.038          33.375  
C19  25732321.625   133994960.701        2127.502          39.813  
C20  25818552.812   134443998.946         545.542          40.250  
C24  24784611.937   129059965.864        2311.766          32.250  
C26  22251379.625   115868762.666        -138.338          49.313  
C29  24303330.125   126553805.907       -2119.297          45.063  
C35  21819480.438   113619765.364        -441.140          49.063  
C38  37200595.000   193713292.932        1302.767          46.188  
C40  36285031.750   188945690.473         381.488          47.000  
C44  23955404.688   124742125.566        1605.422          44.813  
C45  23523357.250   122492232.036       -2846.487          45.813  
> 2023 02 16 09 21 35.0000000  0 36                     
G01  20266429.563   106500810.873       -1645.457          47.375    20266423.688    79529804.800       -1228.767          47.438  
G03  22370244.125   117556554.003        2514.219          42.813    22370246.625    87785691.647        1877.480          43.500  
G07  22759768.687   119603252.066       -3090.175          40.813                                                                  
G08  24131964.875   126814313.875       -2241.218          39.313    24131965.437    94698988.398       -1673.733          41.938  
G14  20905797.688   109860722.441        1911.101          45.000    20905794.625    82038842.290        1427.115          47.875  
G17  22258391.437   116968661.774        1291.956          44.813                                                                  
G19  24532534.750   128919344.044        2365.581          37.813                                                                  
G21  22584927.063   118684589.090       -2987.050          43.688                                                                  
G30  22086562.000   116065641.980       -1648.809          45.125    22086562.813    86672380.860       -1231.268          47.500  
E02  24615477.813   129355224.299        1903.262          45.563    24615478.062    96596441.428        1421.242          44.563  
E10  26486691.687   139188497.153       -2503.335          43.625    26486694.813   103939467.597       -1869.430          43.938  
E11  23982247.875   126027565.724       -1744.966          43.750    23982244.875    94111481.307       -1303.110          42.938  
E24  26851741.813   141106717.213       -2470.121          39.438    26851761.500   105372015.691       -1844.629          40.250  
E25  23504262.375   123515713.262        -448.756          45.750    23504263.875    92235779.147        -335.097          47.125  
E34  26920117.500   141466313.688        2394.763          39.313    26920132.563   105640441.717        1788.205          40.000  
E36  23518630.500   123591265.270         585.252          45.875    23518632.688    92292189.441         437.048          46.563  
C01  37109821.812   193240586.314          40.815          44.813  
C02  38347149.438   199683674.571          17.437          40.313  
C03  36932172.250   192315517.284          47.018          45.563  
C04  38126817.250   198536343.365          25.140          41.625  
C06  40167962.125   209164965.539       -1738.575          35.500  
C07  36076278.375   187858652.595         351.994          45.438  
C09  38950582.750   202825830.595       -1833.425          37.563  
C10  36700131.750   191107222.146         509.815          44.875  
C13  38873581.875   202425013.632        1475.637          41.250  
C16  40124647.750   208939426.617       -1696.003          33.500  
C19  25731913.625   133992833.465        2127.332          39.813  
C20  25818448.188   134443453.773         545.154          40.125  
C24  24784168.375   129057654.351        2311.554          32.313  
C26  22251406.063   115868901.461        -138.858          49.250  
C29  24303736.938   126555925.352       -2119.236          45.063  
C35  21819565.000   113620206.750        -441.244          48.938  
C38  37200345.063   193711990.351        1302.692          46.188  
C40  36284958.250   188945309.091         381.614          46.938  
C44  23955096.625   124740520.425        1605.269          44.875  
C45  23523904.375   122495078.804       -2846.664          45.813  
> 2023 02 16 09 21 36.0000000  0 36                     
G01  20266743.000   106502456.905       -1646.148          47.250    20266737.062    79531033.988       -1229.276          47.563  
G03  22369765.875   117554040.279        2513.593          42.813    22369768.563    87783814.530        1877.129          43.688  
G07  22760356.750   119606342.668       -3090.596          40.688                                                                  
G08  24132391.438   126816555.441       -2241.585          39.500    24132391.875    94700662.289       -1673.857          41.938  
G14  20905434.063   109858811.804        1910.535          44.938    20905430.937    82037415.521        1426.765          47.750  
G17  22258145.875   116967370.130        1291.670          44.750                                                                  
G19  24532084.875   128916978.804        2365.268          37.938                                                                  
G21  22585495.812   118687576.434       -2987.240          43.688                                                                  
G30  22086875.687   116067291.365       -1649.508          45.000    22086876.500    86673612.554       -1231.731          47.250  
E02  24615115.687   129353321.443        1902.911          45.563    24615115.750    96595020.468        1420.977          44.438  
E10  26487168.188   139191000.852       -2503.680          43.375    26487171.250   103941337.241       -1869.605          44.125  
E11  23982580.063   126029311.074       -1745.389          43.688    23982577.063    94112784.653       -1303.301          43.000  
E24  26852211.875   141109187.901       -2470.498          39.250    26852231.562   105373860.635       -1844.932          40.125  
E25  23504347.938   123516162.559        -449.342          45.875    23504349.375    92236114.666        -335.606          46.875  
E34  26919662.000   141463919.387        2394.324          39.063    26919676.938   105638653.792        1787.875          40.063  
E36  23518519.375   123590680.557         584.586          46.063    23518521.437    92291752.798         436.621          46.750  
C01  37109814.375   193240545.297          40.811          44.688  
C02  38347146.188   199683657.235          17.231          40.375  
C03  36932163.063   192315470.377          46.849          45.313  
C04  38126812.313   198536318.199          25.321          41.750  
C06  40168296.063   209166704.284       -1738.682          35.500  
C07  36076211.125   187858300.951         351.668          45.375  
C09  38950934.687   202827664.259       -1833.542          37.438  
C10  36700034.062   191106712.527         509.687          44.875  
C13  38873298.125   202423538.277        1475.347          41.313  
C16  40124972.562   208941122.786       -1696.034          33.313  
C19  25731505.125   133990706.466        2127.022          39.750  
C20  25818343.313   134442909.140         544.567          40.063  
C24  24783723.750   129055343.245        2310.871          32.438  
C26  22251432.688   115869040.898        -139.558          49.313  
C29  24304144.312   126558044.902       -2119.489          45.063  
C35  21819650.063   113620648.387        -441.640          48.875  
C38  37200094.875   193710688.002        1302.407          46.125  
C40  36284884.875   188944927.726         381.421          46.938  
C44  23954788.563   124738915.533        1604.896          44.813  
C45  23524450.812   122497925.924       -2847.141          45.625  
> 2023 02 16 09 21 37.0000000  0 36                     
G01  20267056.125   106504103.404       -1646.429          47.375    20267050.312    79532263.505       -1229.483          47.438  
G03  22369287.563   117551526.841        2513.571          42.625    22369290.125    87781937.618        1876.968          43.563  
G07  22760945.000   119609433.364       -3090.502          40.875                                                                  
G08  24132818.250   126818796.949       -2241.254          39.500    24132818.563    94702336.150       -1673.675          42.063  
G14  20905070.500   109856901.483        1910.464          45.000    20905067.250    82035988.970        1426.620          47.625  
G17  22257900.000   116966078.471        1291.851          44.563                                                                  
G19  24531634.313   128914613.480        2365.578          38.000                                                                  
G21  22586064.250   118690563.862       -2987.183          43.750                                                                  
G30  22087190.000   116068941.166       -1649.756          45.000    22087190.688    86674844.536       -1231.921          47.625  
E02  24614753.438   129351418.705        1902.922          45.563    24614753.687    96593599.599        1420.999          44.438  
E10  26487644.375   139193504.545       -2503.258          43.313    26487647.500   103943206.869       -1869.443          43.875  
E11  23982912.062   126031056.540       -1745.175          43.563    23982909.125    94114088.107       -1303.244          42.875  
E24  26852682.250   141111658.650       -2470.418          39.500    26852701.750   105375705.641       -1844.898          40.125  
E25  23504433.125   123516612.132        -449.587          45.813    23504435.063    92236450.387        -335.578          47.250  
E34  26919206.375   141461525.240        2394.359          39.188    26919221.313   105636865.950        1787.961          40.125  
E36  23518408.000   123590096.086         584.616          46.188    23518410.125    92291316.352         436.554          46.500  
C01  37109806.562   193240504.218          41.189          44.688  
C02  38347142.437   199683639.810          17.634          40.500  
C03  36932153.750   192315423.379          47.117          45.250  
C04  38126807.188   198536292.869          25.596          42.000  
C06  40168629.625   209168442.864       -1738.287          35.500  
C07  36076143.500   187857949.185         351.976          45.438  
C09  38951287.062   202829497.828       -1833.294          37.500  
C10  36699936.313   191106202.817         510.006          44.875  
C13  38873015.250   202422062.930        1475.595          41.250  
C16  40125298.250   208942818.853       -1695.752          33.313  
C19  25731096.438   133988579.550        2127.096          39.688  
C20  25818238.875   134442364.883         544.446          40.063  
C24  24783280.438   129053032.455        2310.906          32.563  
C26  22251459.875   115869180.807        -139.886          49.188  
C29  24304551.188   126560164.340       -2119.221          45.125  
C35  21819735.000   113621090.137        -441.512          48.813  
C38  37199844.563   193709385.691        1302.567          46.063  
C40  36284811.938   188944546.289         381.748          46.938  
C44  23954480.000   124737310.754        1604.987          44.813  
C45  23524997.563   122500773.234       -2847.109          45.625  
> 2023 02 16 09 21 38.0000000  0 36                     
G01  20267369.312   106505749.988       -1646.867          47.438    20267363.500    79533493.107       -1229.805          47.250  
G03  22368809.125   117549013.352        2513.327          42.750    22368811.688    87780060.684        1876.813          43.438  
G07  22761533.187   119612523.820       -3090.630          40.938                                                                  
G08  24133244.562   126821038.061       -2241.166          39.438    24133244.812    94704009.725       -1673.654          42.000  
G14  20904707.250   109854991.117        1910.185          45.313    20904703.875    82034562.400        1426.444          47.875  
G17  22257654.000   116964786.482        1291.907          44.250                                                                  
G19  24531184.000   128912247.780        2365.572          37.938                                                                  
G21  22586632.563   118693550.933       -2987.205          43.625                                                                  
G30  22087503.688   116070591.016       -1650.100          45.063    22087504.500    86676076.545       -1232.225          47.375  
E02  24614391.438   129349515.767        1902.969          45.313    24614391.625    96592178.596        1420.920          44.625  
E10  26488120.625   139196007.853       -2503.384          43.438    26488123.812   103945076.213       -1869.370          43.938  
E11  23983244.375   126032801.796       -1745.409          43.500    23983241.312    94115391.370       -1303.391          42.938  
E24  26853152.625   141114129.182       -2470.733          39.375    26853171.938   105377550.479       -1844.919          40.125  
E25  23504519.437   123517061.661        -449.710          46.063    23504520.625    92236786.038        -335.844          47.063  
E34  26918750.375   141459130.819        2394.270          38.938    26918765.687   105635077.936        1787.878          40.125  
E36  23518296.938   123589511.577         584.420          46.250    23518298.938    92290879.871         436.327          46.563  
C01  37109797.938   193240462.699          41.289          44.938  
C02  38347139.563   199683621.971          17.748          40.375  
C03  36932145.125   192315375.960          47.239          45.375  
C04  38126802.375   198536267.220          25.704          42.063  
C06  40168963.250   209170181.004       -1738.139          35.563  
C07  36076075.812   187857597.003         352.074          45.375  
C09  38951639.188   202831330.932       -1833.250          37.563  
C10  36699838.125   191105692.636         510.096          44.938  
C13  38872731.938   202420587.235        1475.605          41.125  
C16  40125624.313   208944514.386       -1695.653          33.313  
C19  25730688.125   133986452.343        2127.154          39.563  
C20  25818134.562   134441820.613         544.001          40.000  
C24  24782836.500   129050721.521        2310.769          32.563  
C26  22251486.438   115869320.830        -140.271          49.125  
C29  24304958.063   126562283.345       -2119.081          45.125  
C35  21819819.500   113621531.634        -441.633          48.813  
C38  37199594.625   193708083.092        1302.491          45.938  
C40  36284738.437   188944164.394         381.843          46.938  
C44  23954171.750   124735705.716        1604.898          44.750  
C45  23525544.688   122503620.379       -2847.306          45.688  
> 2023 02 16 09 21 39.0000000  0 36                     
G01  20267683.062   106507397.296       -1647.840          47.563    20267677.250    79534723.228       -1230.494          47.438  
G03  22368331.125   117546500.412        2512.429          42.875    22368333.750    87778184.175        1876.220          43.563  
G07  22762121.250   119615614.648       -3091.251          40.875                                                                  
G08  24133671.250   126823279.424       -2241.650          39.313    24133671.313    94705683.456       -1673.914          41.938  
G14  20904343.625   109853081.308        1909.263          45.313    20904340.313    82033136.252        1425.866          47.750  
G17  22257408.375   116963494.763        1291.410          44.438                                                                  
G19  24530733.750   128909882.316        2365.078          37.875                                                                  
G21  22587201.437   118696538.331       -2987.736          43.313                                                                  
G30  22087817.813   116072241.544       -1651.045          45.000    22087818.437    86677309.098       -1232.848          47.250  
E02  24614029.250   129347613.246        1902.268          45.500    24614029.437    96590757.859        1420.467          44.563  
E10  26488597.187   139198511.354       -2503.909          43.375    26488600.312   103946945.716       -1869.773          44.000  
E11  23983576.563   126034547.420       -1746.145          43.438    23983573.437    94116694.914       -1303.887          42.938  
E24  26853622.688   141116600.127       -2471.277          39.625    26853642.000   105379395.630       -1845.402          40.188  
E25  23504604.000   123517511.746        -450.526          46.188    23504606.187    92237122.170        -336.535          47.000  
E34  26918295.000   141456736.823        2393.341          39.063    26918310.250   105633290.230        1787.370          40.188  
E36  23518186.125   123588927.585         583.384          46.188    23518187.813    92290443.759         435.715          46.750  
C01  37109790.375   193240421.408          41.169          45.000  
C02  38347135.812   199683604.256          17.644          40.688  
C03  36932135.875   192315328.751          47.106          45.063  
C04  38126797.687   198536241.721          25.366          41.938  
C06  40169297.500   209171919.189       -1738.406          35.500  
C07  36076008.500   187857244.974         351.772          45.063  
C09  38951990.687   202833164.193       -1833.628          37.500  
C10  36699740.437   191105182.610         509.652          44.813  
C13  38872448.250   202419111.837        1475.145          41.125  
C16  40125949.875   208946210.006       -1695.925          33.188  
C19  25730279.563   133984325.488        2126.485          39.625  
C20  25818029.625   134441276.962         543.142          39.875  
C24  24782392.750   129048411.215        2309.771          32.500  
C26  22251513.438   115869461.592        -141.281          49.063  
C29  24305365.437   126564402.529       -2119.513          45.250  
C35  21819904.563   113621973.507        -442.275          48.813  
C38  37199344.563   193706780.846        1301.809          45.875  
C40  36284665.000   188943782.641         381.384          47.000  
C44  23953863.875   124734101.080        1604.313          44.813  
C45  23526091.313   122506467.977       -2848.019          45.750  
> 2023 02 16 09 21 40.0000000  0 36                     
G01  20267996.812   106509045.697       -1648.570          47.563    20267990.875    79535954.177       -1231.080          47.375  
G03  22367852.938   117543988.455        2511.794          43.000    22367855.563    87776308.361        1875.805          43.625  
G07  22762709.500   119618706.218       -3091.501          40.750                                                                  
G08  24134097.813   126825521.341       -2241.949          39.188    24134098.062    94707357.589       -1674.081          42.000  
G14  20903980.313   109851172.474        1908.680          45.250    20903977.063    82031710.837        1425.388          47.563  
G17  22257162.625   116962203.728        1291.106          44.438                                                                  
G19  24530283.625   128907517.480        2364.811          37.688                                                                  
G21  22587769.938   118699526.430       -2988.078          43.375                                                                  
G30  22088132.312   116073893.145       -1651.731          45.125    22088133.062    86678542.411       -1233.384          47.625  
E02  24613667.188   129345711.484        1901.807          45.438    24613667.375    96589337.719        1420.124          44.375  
E10  26489073.500   139201015.510       -2504.179          43.313    26489076.688   103948815.711       -1869.959          43.813  
E11  23983908.750   126036293.853       -1746.407          43.375    23983905.625    94117999.087       -1304.260          42.875  
E24  26854093.312   141119071.847       -2471.743          39.563    26854112.500   105381241.338       -1845.780          40.188  
E25  23504690.937   123517962.791        -451.115          46.000    23504692.125    92237458.981        -336.932          47.313  
E34  26917839.813   141454343.582        2393.295          39.125    26917854.875   105631503.098        1787.129          40.125  
E36  23518074.937   123588344.547         582.926          46.438    23518076.750    92290008.383         435.262          46.500  
C01  37109782.688   193240380.648          40.947          45.000  
C02  38347131.813   199683587.192          17.358          40.563  
C03  36932126.437   192315282.098          46.994          45.063  
C04  38126792.250   198536216.815          25.247          42.000  
C06  40169631.125   209173657.938       -1738.654          35.438  
C07  36075940.813   187856893.527         351.542          45.125  
C09  38952343.000   202834998.029       -1833.754          37.625  
C10  36699642.563   191104673.153         509.502          44.813  
C13  38872165.062   202417637.085        1474.748          41.125  
C16  40126275.375   208947906.193       -1695.979          33.063  
C19  25729870.813   133982199.332        2126.200          39.688  
C20  25817925.750   134440734.365         542.490          39.813  
C24  24781949.938   129046101.817        2309.494          32.563  
C26  22251541.063   115869603.468        -142.055          49.125  
C29  24305772.250   126566522.309       -2119.709          45.125  
C35  21819989.625   113622416.115        -442.649          48.688  
C38  37199094.375   193705479.287        1301.503          45.875  
C40  36284592.125   188943401.449         381.212          46.875  
C44  23953555.563   124732497.199        1603.860          44.875  
C45  23526638.187   122509316.423       -2848.485          45.688  
> 2023 02 16 09 21 41.0000000  0 36                     
G01  20268310.313   106510694.710       -1648.763          47.438    20268304.563    79537185.598       -1231.219          47.188  
G03  22367375.187   117541476.953        2511.797          42.938    22367377.500    87774432.899        1875.732          43.625  
G07  22763298.187   119621798.064       -3091.428          40.938                                                                  
G08  24134524.562   126827763.394       -2241.644          39.313    24134524.500    94709031.845       -1673.969          41.938  
G14  20903617.500   109849264.128        1908.660          45.250    20903614.062    82030285.753        1425.308          47.750  
G17  22256916.812   116960912.861        1291.257          44.250                                                                  
G19  24529833.813   128905152.772        2365.202          37.625                                                                  
G21  22588338.562   118702514.724       -2987.914          43.188                                                                  
G30  22088446.500   116075545.296       -1651.884          45.125    22088447.313    86679776.175       -1233.537          47.375  
E02  24613305.500   129343810.042        1901.872          45.625    24613305.812    96587917.827        1420.188          44.563  
E10  26489550.125   139203519.771       -2503.833          43.500    26489553.250   103950685.770       -1869.697          43.875  
E11  23984241.375   126038040.544       -1746.221          43.313    23984238.125    94119303.440       -1304.148          42.938  
E24  26854563.937   141121543.856       -2471.484          39.688    26854583.063   105383087.280       -1845.604          40.188  
E25  23504776.063   123518414.301        -451.197          46.063    23504778.000    92237796.145        -336.953          47.188  
E34  26917384.375   141451950.629        2393.380          39.250    26917399.437   105629716.171        1787.134          40.000  
E36  23517964.187   123587761.932         582.855          46.313    23517966.000    92289573.332         435.322          46.563  
C01  37109774.250   193240339.958          41.145          44.938  
C02  38347129.687   199683570.102          17.412          40.750  
C03  36932118.375   192315235.494          46.941          45.063  
C04  38126787.750   198536191.973          25.267          41.688  
C06  40169965.000   209175396.658       -1738.257          35.313  
C07  36075873.187   187856542.147         351.803          45.188  
C09  38952695.313   202836831.983       -1833.465          37.625  
C10  36699544.438   191104163.740         509.836          44.750  
C13  38871881.750   202416162.486        1474.991          41.188  
C16  40126600.937   208949602.305       -1695.819          33.063  
C19  25729462.562   133980073.440        2126.278          39.625  
C20  25817821.938   134440192.284         542.345          39.750  
C24  24781506.187   129043792.839        2309.279          32.688  
C26  22251568.188   115869745.981        -142.286          49.063  
C29  24306179.375   126568642.160       -2119.431          45.250  
C35  21820074.437   113622859.017        -442.499          48.625  
C38  37198844.750   193704177.960        1301.693          45.938  
C40  36284518.875   188943020.321         381.572          46.813  
C44  23953247.500   124730893.573        1603.948          45.000  
C45  23527185.437   122512165.210       -2848.415          45.625  
> 2023 02 16 09 21 42.0000000  0 36                     
G01  20268624.313   106512343.668       -1648.999          47.250    20268618.500    79538416.948       -1231.400          47.375  
G03  22366897.375   117538965.224        2511.735          43.063    22366899.688    87772557.279        1875.585          43.813  
G07  22763886.562   119624889.496       -3091.345          41.063                                                                  
G08  24134951.187   126830004.848       -2241.340          39.313    24134951.000    94710705.673       -1673.759          42.000  
G14  20903254.188   109847355.546        1908.593          45.375    20903250.938    82028860.521        1425.218          47.688  
G17  22256671.313   116959621.488        1291.459          44.063                                                                  
G19  24529384.000   128902787.491        2365.373          37.438                                                                  
G21  22588907.125   118705502.555       -2987.775          43.188                                                                  
G30  22088760.875   116077197.360       -1652.098          45.125    22088761.687    86681009.839       -1233.719          47.250  
E02  24612943.563   129341908.188        1901.942          45.563    24612943.937    96586497.623        1420.207          44.500  
E10  26490026.750   139206023.523       -2503.590          43.313    26490029.812   103952555.436       -1869.566          43.938  
E11  23984573.813   126039786.901       -1746.110          43.625    23984570.375    94120607.513       -1304.036          42.938  
E24  26855034.000   141124015.475       -2471.600          39.500    26855053.375   105384932.929       -1845.526          40.125  
E25  23504862.125   123518865.567        -451.205          46.063    23504863.812    92238133.145        -336.996          47.125  
E34  26916929.125   141449557.295        2393.228          39.313    26916944.063   105627928.964        1787.205          40.063  
E36  23517853.437   123587179.091         582.969          46.188    23517855.187    92289138.091         435.294          46.750  
C01  37109766.875   193240298.716          41.409          44.875  
C02  38347126.063   199683552.489          17.668          41.000  
C03  36932108.812   192315188.348          47.149          45.250  
C04  38126783.125   198536166.547          25.583          41.625  
C06  40170299.125   209177134.750       -1737.911          35.313  
C07  36075805.875   187856190.174         352.129          45.250  
C09  38953047.187   202838665.334       -1833.070          37.688  
C10  36699446.625   191103653.722         510.178          44.813  
C13  38871597.875   202414687.413        1475.262          41.125  
C16  40126926.562   208951297.794       -1695.250          33.063  
C19  25729054.250   133977947.095        2126.489          39.438  
C20  25817717.500   134439650.006         542.293          39.813  
C24  24781062.000   129041483.619        2309.253          32.688  
C26  22251595.437   115869888.450        -142.557          49.188  
C29  24306586.563   126570761.399       -2119.108          45.250  
C35  21820159.625   113623301.482        -442.384          48.688  
C38  37198595.000   193702876.173        1301.838          46.063  
C40  36284445.438   188942638.565         381.902          46.938  
C44  23952939.750   124729289.527        1604.112          45.000  
C45  23527732.250   122515013.685       -2848.391          45.563  
> 2023 02 16 09 21 43.0000000  0 36                     
G01  20268938.125   106513992.893       -1649.494          47.188    20268932.375    79539648.525       -1231.760          47.375  
G03  22366419.125   117536453.639        2511.360          43.063    22366421.625    87770681.754        1875.347          43.813  
G07  22764475.125   119627980.836       -3091.480          41.000                                                                  
G08  24135377.813   126832246.141       -2241.375          39.438    24135377.625    94712379.322       -1673.794          42.063  
G14  20902890.875   109845447.120        1908.211          45.563    20902887.688    82027435.403        1424.933          47.500  
G17  22256425.625   116958329.953        1291.387          43.875                                                                  
G19  24528933.250   128900422.005        2365.457          37.313                                                                  
G21  22589475.563   118708490.223       -2987.847          43.250                                                                  
G30  22089075.500   116078849.666       -1652.541          45.125    22089076.312    86682243.680       -1234.003          47.625  
E02  24612581.562   129340006.347        1901.695          45.563    24612582.063    96585077.413        1420.105          44.438  
E10  26490503.000   139208527.036       -2503.746          43.063    26490506.125   103954424.962       -1869.542          43.813  
E11  23984905.875   126041533.216       -1746.411          43.500    23984902.563    94121911.585       -1304.042          42.875  
E24  26855504.625   141126487.051       -2471.590          39.625    26855523.875   105386778.566       -1845.672          40.250  
E25  23504948.063   123519317.011        -451.572          46.313    23504949.813    92238470.256        -337.272          47.500  
E34  26916474.125   141447163.964        2393.180          39.438    26916488.750   105626141.726        1787.092          40.188  
E36  23517742.438   123586596.373         582.608          46.063    23517744.187    92288702.928         435.009          46.438  
C01  37109758.812   193240257.273          41.374          44.875  
C02  38347122.750   199683534.641          17.697          40.938  
C03  36932099.188   192315140.967          47.217          45.313  
C04  38126778.062   198536140.883          25.520          41.438  
C06  40170632.125   209178872.505       -1737.711          35.313  
C07  36075738.187   187855837.978         352.120          45.438  
C09  38953399.125   202840498.414       -1833.193          37.688  
C10  36699348.875   191103143.434         510.254          44.813  
C13  38871314.563   202413212.155        1475.118          41.188  
C16  40127252.625   208952992.939       -1695.254          33.125  
C19  25728645.875   133975820.642        2126.289          39.438  
C20  25817613.312   134439107.991         541.843          39.813  
C24  24780618.437   129039174.511        2308.829          32.688  
C26  22251623.125   115870031.211        -143.033          49.188  
C29  24306993.187   126572880.412       -2119.083          45.250  
C35  21820244.500   113623743.905        -442.517          48.750  
C38  37198344.813   193701574.286        1301.762          46.063  
C40  36284372.437   188942256.527         381.930          46.938  
C44  23952631.438   124727685.456        1603.930          45.063  
C45  23528279.125   122517862.174       -2848.660          45.563  
> 2023 02 16 09 21 44.0000000  0 36                     
G01  20269251.875   106515642.979       -1650.315          47.125    20269246.188    79540880.725       -1232.383          47.188  
G03  22365941.188   117533942.749        2510.646          43.000    22365943.688    87768806.753        1874.881          43.750  
G07  22765063.312   119631072.696       -3091.922          41.000                                                                  
G08  24135804.125   126834487.704       -2241.799          39.500    24135804.000    94714053.244       -1673.935          42.063  
G14  20902528.125   109843539.393        1907.518          45.438    20902524.750    82026010.809        1424.450          47.688  
G17  22256179.750   116957038.837        1291.085          43.688                                                                  
G19  24528483.187   128898056.916        2364.951          37.625                                                                  
G21  22590044.187   118711478.362       -2988.196          43.188                                                                  
G30  22089389.938   116080502.767       -1653.362          45.000    22089390.688    86683478.150       -1234.684          47.250  
E02  24612219.875   129338105.032        1901.255          45.563    24612220.375    96583657.589        1419.737          44.625  
E10  26490979.625   139211030.955       -2504.005          43.125    26490982.687   103956294.773       -1869.821          43.875  
E11  23985238.563   126043280.026       -1746.995          43.750    23985235.063    94123216.031       -1304.524          43.063  
E24  26855975.313   141128959.147       -2472.212          39.375    26855994.375   105388624.573       -1846.082          40.313  
E25  23505034.000   123519769.140        -452.426          45.938    23505035.687    92238807.864        -337.770          47.375  
E34  26916018.562   141444771.126        2392.917          39.375    26916033.313   105624354.895        1786.689          40.125  
E36  23517631.687   123586014.325         581.770          45.875    23517633.500    92288268.306         434.518          46.500  
C01  37109750.500   193240216.115          41.164          44.875  
C02  38347119.625   199683517.113          17.761          40.500  
C03  36932090.750   192315093.898          47.026          45.313  
C04  38126773.375   198536115.545          25.254          41.375  
C06  40170966.125   209180610.471       -1737.944          35.438  
C07  36075670.375   187855486.075         351.833          45.500  
C09  38953751.375   202842331.807       -1833.427          37.688  
C10  36699250.625   191102633.438         509.927          44.688  
C13  38871031.375   202411737.311        1474.768          41.250  
C16  40127578.313   208954688.294       -1695.365          33.250  
C19  25728237.687   133973694.687        2125.833          39.375  
C20  25817509.500   134438566.700         541.017          39.750  
C24  24780175.375   129036866.096        2308.245          32.563  
C26  22251650.438   115870174.874        -143.921          49.188  
C29  24307400.375   126574999.752       -2119.391          45.125  
C35  21820329.375   113624186.827        -443.077          48.688  
C38  37198094.813   193700272.849        1301.266          46.188  
C40  36284299.063   188941874.793         381.658          46.938  
C44  23952323.438   124726081.851        1603.477          45.063  
C45  23528826.250   122520711.250       -2849.295          45.625  
> 2023 02 16 09 21 45.0000000  0 36                     
G01  20269566.437   106517293.383       -1650.219          47.188    20269560.500    79542113.185       -1232.422          47.500  
G03  22365463.625   117531432.036        2511.007          43.063    22365466.187    87766931.906        1874.954          43.813  
G07  22765651.563   119634164.507       -3091.493          41.000                                                                  
G08  24136230.563   126836729.108       -2241.004          39.625    24136230.625    94715726.994       -1673.538          42.000  
G14  20902164.938   109841631.886        1907.786          45.563    20902161.750    82024586.363        1424.596          47.750  
G17  22255934.250   116955747.629        1291.485          43.938                                                                  
G19  24528033.500   128895691.664        2365.653          37.813                                                                  
G21  22590612.688   118714466.433       -2987.750          43.250                                                                  
G30  22089704.688   116082156.160       -1653.272          45.063    22089705.313    86684712.830       -1234.551          47.250  
E02  24611858.187   129336203.737        1901.705          45.625    24611858.500    96582237.785        1419.996          44.625  
E10  26491456.062   139213534.716       -2503.465          43.250    26491459.187   103958164.460       -1869.497          43.938  
E11  23985570.938   126045026.892       -1746.656          43.500    23985567.375    94124520.511       -1304.209          42.938  
E24  26856445.625   141131431.252       -2471.711          39.625    26856464.750   105390470.570       -1845.752          40.250  
E25  23505120.250   123520221.446        -452.097          45.938    23505121.813    92239145.651        -337.597          47.188  
E34  26915563.313   141442378.329        2393.042          39.250    26915578.000   105622568.051        1786.977          40.188  
E36  23517521.187   123585432.448         582.117          46.250    23517522.875    92287833.780         434.749          46.688  
C01  37109743.375   193240174.756          41.552          45.000  
C02  38347115.938   199683499.372          17.591          40.250  
C03  36932081.563   192315046.631          47.568          45.313  
C04  38126768.563   198536089.958          25.675          41.375  
C06  40171300.375   209182348.266       -1737.432          35.375  
C07  36075603.000   187855134.005         352.378          45.563  
C09  38954103.312   202844165.043       -1832.838          37.750  
C10  36699152.750   191102123.249         510.568          44.750  
C13  38870747.750   202410262.377        1475.239          41.250  
C16  40127903.750   208956383.521       -1694.628          33.250  
C19  25727829.688   133971568.705        2126.219          39.438  
C20  25817405.187   134438025.664         541.238          39.625  
C24  24779731.750   129034557.856        2308.477          32.438  
C26  22251678.000   115870318.866        -143.855          49.250  
C29  24307807.500   126577118.873       -2118.803          45.250  
C35  21820414.750   113624629.738        -442.637          48.750  
C38  37197845.125   193698971.359        1301.806          46.063  
C40  36284225.562   188941492.849         382.366          46.813  
C44  23952015.875   124724478.276        1603.851          45.125  
C45  23529373.250   122523560.402       -2848.878          45.563  
> 2023 02 16 09 21 46.0000000  0 36                     
G01  20269880.250   106518944.031       -1651.375          47.188    20269874.687    79543345.800       -1233.160          47.375  
G03  22364985.750   117528921.423        2509.858          43.000    22364988.563    87765057.101        1874.296          43.875  
G07  22766240.187   119637256.226       -3092.378          41.000                                                                  
G08  24136656.938   126838970.202       -2241.815          39.688    24136657.188    94717400.538       -1673.879          42.000  
G14  20901801.875   109839724.440        1906.671          45.688    20901798.625    82023161.969        1423.938          47.438  
G17  22255688.438   116954456.177        1290.885          44.125                                                                  
G19  24527583.187   128893326.121        2364.888          37.750                                                                  
G21  22591181.063   118717454.290       -2988.378          43.188                                                                  
G30  22090019.313   116083809.731       -1654.258          45.125    22090020.125    86685947.628       -1235.296          47.438  
E02  24611496.187   129334302.327        1900.733          45.625    24611496.625    96580817.918        1419.401          44.500  
E10  26491932.375   139216038.193       -2504.248          42.875    26491935.563   103960033.951       -1869.883          43.813  
E11  23985903.250   126046773.669       -1747.523          43.750    23985899.688    94125824.894       -1304.902          42.875  
E24  26856916.313   141133903.297       -2472.823          39.250    26856935.312   105392316.533       -1846.447          40.250  
E25  23505206.062   123520673.828        -453.035          46.188    23505208.188    92239483.459        -338.404          47.500  
E34  26915108.250   141439985.378        2392.117          39.063    26915122.750   105620781.135        1786.461          40.313  
E36  23517410.250   123584850.610         581.117          46.375    23517412.062    92287399.280         433.931          46.500  
C01  37109735.375   193240133.062          41.454          44.813  
C02  38347112.750   199683481.363          17.848          40.125  
C03  36932072.000   192314999.017          47.301          45.125  
C04  38126762.875   198536064.143          25.344          41.500  
C06  40171633.625   209184085.617       -1737.923          35.438  
C07  36075535.500   187854781.593         351.871          45.563  
C09  38954455.188   202845997.900       -1833.479          37.750  
C10  36699054.875   191101612.698         509.930          44.750  
C13  38870464.313   202408787.247        1474.536          41.250  
C16  40128229.688   208958078.160       -1695.431          33.375  
C19  25727420.938   133969442.523        2125.556          39.375  
C20  25817301.438   134437484.755         540.190          39.750  
C24  24779288.438   129032249.647        2307.123          32.563  
C26  22251705.937   115870463.118        -144.945          49.188  
C29  24308214.125   126579237.700       -2119.400          45.250  
C35  21820499.750   113625072.514        -443.486          48.813  
C38  37197595.062   193697669.723        1301.027          46.063  
C40  36284152.438   188941110.560         381.610          46.750  
C44  23951707.625   124722874.544        1603.137          45.250  
C45  23529920.687   122526409.512       -2849.719          45.563  
> 2023 02 16 09 21 47.0000000  0 36                     
G01  20270194.500   106520595.974       -1652.020          47.250    20270188.875    79544579.391       -1233.637          47.125  
G03  22364508.000   117526411.959        2509.402          42.750    22364510.875    87763183.164        1873.932          43.750  
G07  22766828.687   119640348.922       -3092.608          41.000                                                                  
G08  24137083.438   126841212.100       -2241.807          39.625    24137083.625    94719074.709       -1674.008          41.875  
G14  20901439.375   109837818.176        1906.234          45.750    20901435.875    82021738.479        1423.490          47.563  
G17  22255442.625   116953165.619        1290.672          44.250                                                                  
G19  24527133.000   128890961.444        2364.887          37.625                                                                  
G21  22591749.937   118720443.072       -2988.611          43.313                                                                  
G30  22090334.125   116085464.598       -1654.890          44.938    22090334.875    86687183.413       -1235.829          47.250  
E02  24611134.625   129332401.967        1900.374          45.375    24611135.063    96579398.817        1419.192          44.563  
E10  26492409.125   139218542.538       -2504.110          43.563    26492412.188   103961904.074       -1870.037          43.875  
E11  23986236.062   126048521.406       -1747.740          43.938    23986232.500    94127130.036       -1305.075          43.125  
E24  26857386.875   141136376.239       -2472.849          39.313    26857405.937   105394163.217       -1846.671          40.313  
E25  23505293.188   123521127.373        -453.557          46.000    23505294.375    92239822.154        -338.641          47.250  
E34  26914653.125   141437593.483        2392.203          39.375    26914667.437   105618995.002        1786.264          40.188  
E36  23517299.687   123584269.923         580.719          46.313    23517301.500    92286965.674         433.581          46.500  
C01  37109727.000   193240092.224          41.217          44.813  
C02  38347109.375   199683464.108          17.247          40.250  
C03  36932063.750   192314952.253          46.926          45.063  
C04  38126758.563   198536039.115          25.141          41.625  
C06  40171967.500   209185823.701       -1737.996          35.375  
C07  36075467.625   187854429.975         351.766          45.688  
C09  38954807.250   202847831.561       -1833.553          37.625  
C10  36698956.813   191101102.917         509.876          44.750  
C13  38870181.313   202407312.973        1474.320          41.188  
C16  40128554.937   208959773.637       -1695.298          33.313  
C19  25727012.750   133967317.280        2125.293          39.438  
C20  25817197.937   134436945.113         539.756          39.500  
C24  24778845.188   129029942.608        2306.854          32.688  
C26  22251733.563   115870608.698        -145.629          49.125  
C29  24308621.312   126581357.306       -2119.484          45.188  
C35  21820584.687   113625516.253        -443.676          48.813  
C38  37197345.188   193696368.980        1300.808          46.188  
C40  36284079.125   188940729.042         381.597          46.813  
C44  23951399.625   124721271.825        1602.823          45.250  
C45  23530467.813   122529259.695       -2850.187          45.563  
> 2023 02 16 09 21 48.0000000  0 36                     
G01  20270509.125   106522248.389       -1652.381          47.250    20270503.563    79545813.348       -1233.881          47.625  
G03  22364030.625   117523902.804        2509.281          42.813    22364033.500    87761309.471        1873.784          43.813  
G07  22767416.875   119643441.696       -3092.654          41.000                                                                  
G08  24137510.438   126843453.987       -2241.633          39.688    24137510.500    94720748.835       -1673.922          41.875  
G14  20901076.500   109835912.239        1906.070          46.000    20901073.250    82020315.201        1423.406          47.813  
G17  22255197.062   116951875.089        1290.761          44.313                                                                  
G19  24526683.312   128888596.717        2365.037          37.625                                                                  
G21  22592318.687   118723431.894       -2988.621          43.250                                                                  
G30  22090649.187   116087119.877       -1655.163          44.813    22090650.000    86688419.485       -1236.007          47.250  
E02  24610773.063   129330501.730        1900.425          45.313    24610773.375    96577979.814        1419.132          44.500  
E10  26492885.750   139221046.863       -2504.040          43.375    26492888.687   103963774.186       -1869.956          43.875  
E11  23986568.437   126050269.293       -1747.613          43.563    23986565.125    94128435.274       -1305.155          43.000  
E24  26857857.313   141138849.401       -2472.956          39.188    26857876.563   105396009.992       -1846.637          40.313  
E25  23505378.625   123521581.263        -453.710          45.750    23505380.750    92240161.075        -338.858          47.125  
E34  26914197.937   141435201.700        2391.764          39.625    26914212.187   105617208.937        1786.266          40.188  
E36  23517189.500   123583689.532         580.599          46.250    23517191.125    92286532.263         433.512          46.750  
C01  37109719.375   193240051.297          41.113          44.750  
C02  38347105.813   199683446.815          17.566          40.375  
C03  36932054.562   192314905.419          46.933          44.938  
C04  38126753.750   198536014.027          25.187          41.750  
C06  40172301.375   209187561.675       -1737.645          35.438  
C07  36075400.125   187854078.294         351.964          45.688  
C09  38955159.500   202849665.204       -1833.371          37.500  
C10  36698858.812   191100593.075         510.159          44.813  
C13  38869897.875   202405838.722        1474.461          41.125  
C16  40128880.438   208961468.918       -1694.896          33.375  
C19  25726604.562   133965192.162        2125.350          39.313  
C20  25817094.000   134436405.796         539.335          39.375  
C24  24778402.688   129027635.775        2306.946          32.750  
C26  22251761.500   115870754.756        -145.963          49.063  
C29  24309028.375   126583476.857       -2119.245          45.250  
C35  21820670.187   113625960.117        -443.667          48.813  
C38  37197095.562   193695068.329        1300.844          46.250  
C40  36284005.687   188940347.414         381.823          46.938  
C44  23951092.125   124719669.200        1602.870          45.250  
C45  23531015.063   122532110.041       -2850.168          45.500  
> 2023 02 16 09 21 49.0000000  0 36                     
G01  20270823.500   106523901.191       -1652.841          47.375    20270817.875    79547047.576       -1234.267          47.438  
G03  22363553.125   117521393.935        2508.901          43.000    22363556.062    87759435.958        1873.519          43.875  
G07  22768005.688   119646534.510       -3092.703          41.125                                                                  
G08  24137936.625   126845695.777       -2241.577          39.688    24137937.000    94722422.886       -1673.938          41.875  
G14  20900713.625   109834006.568        1905.711          45.813    20900710.562    82018892.139        1423.001          47.625  
G17  22254951.500   116950584.513        1290.673          44.375                                                                  
G19  24526233.313   128886231.906        2364.955          37.875                                                                  
G21  22592887.375   118726420.687       -2988.596          43.188                                                                  
G30  22090964.125   116088775.511       -1655.671          44.938    22090965.125    86689655.818       -1236.379          47.375  
E02  24610411.188   129328601.579        1900.299          45.250    24610411.687    96576560.869        1418.973          44.375  
E10  26493362.125   139223551.096       -2504.010          43.250    26493365.063   103965644.228       -1869.979          43.688  
E11  23986901.125   126052017.233       -1747.814          43.500    23986897.750    94129740.567       -1305.297          43.000  
E24  26858328.063   141141322.615       -2473.115          39.250    26858347.187   105397856.838       -1846.803          40.313  
E25  23505465.813   123522035.374        -453.946          45.875    23505467.250    92240500.190        -339.070          47.438  
E34  26913742.875   141432809.993        2391.708          39.438    26913757.188   105615422.953        1785.995          40.313  
E36  23517079.000   123583109.356         580.304          46.250    23517080.562    92286099.035         433.283          46.563  
C01  37109711.562   193240010.253          40.896          44.813  
C02  38347102.062   199683429.366          17.625          40.438  
C03  36932045.125   192314858.432          46.865          44.938  
C04  38126748.625   198535988.776          25.257          41.750  
C06  40172634.813   209189299.390       -1737.651          35.438  
C07  36075332.625   187853726.473         351.961          45.750  
C09  38955511.687   202851498.656       -1833.289          37.563  
C10  36698761.063   191100083.065         510.197          44.875  
C13  38869614.562   202404364.422        1474.431          41.188  
C16  40129206.000   208963164.040       -1694.886          33.375  
C19  25726196.063   133963067.070        2125.158          39.313  
C20  25816990.250   134435866.791         538.940          39.500  
C24  24777960.125   129025329.255        2306.720          32.813  
C26  22251789.937   115870901.240        -146.564          49.063  
C29  24309435.125   126585596.252       -2119.233          45.188  
C35  21820755.312   113626404.047        -443.863          48.813  
C38  37196845.562   193693767.675        1300.767          46.188  
C40  36283932.687   188939965.649         381.900          47.000  
C44  23950784.250   124718066.633        1602.693          45.250  
C45  23531562.562   122534960.552       -2850.435          45.500  
> 2023 02 16 09 21 50.0000000  0 36                     
G01  20271138.000   106525554.258       -1653.099          47.500    20271132.313    79548282.019       -1234.459          47.188  
G03  22363075.750   117518885.162        2508.799          43.125    22363078.500    87757562.519        1873.503          43.750  
G07  22768594.250   119649627.250       -3092.612          41.188                                                                  
G08  24138363.062   126847937.285       -2241.400          39.500    24138363.438    94724096.750       -1673.668          41.875  
G14  20900351.312   109832101.002        1905.568          45.938    20900348.062    82017469.158        1423.052          47.563  
G17  22254705.875   116949293.757        1290.956          44.438                                                                  
G19  24525783.000   128883866.907        2365.213          38.000                                                                  
G21  22593456.312   118729409.334       -2988.373          43.250                                                                  
G30  22091279.125   116090431.372       -1655.835          44.875    22091280.125    86690892.343       -1236.482          47.188  
E02  24610049.563   129326701.405        1900.333          45.375    24610050.187    96575141.878        1419.061          44.500  
E10  26493838.937   139226055.114       -2503.821          43.375    26493841.688   103967514.114       -1869.758          43.938  
E11  23987233.937   126053765.164       -1747.719          43.563    23987230.500    94131045.814       -1305.161          43.063  
E24  26858798.625   141143795.806       -2472.958          39.250    26858817.812   105399703.645       -1846.698          40.188  
E25  23505551.875   123522489.597        -454.220          46.125    23505553.625    92240839.385        -339.199          47.250  
E34  26913287.688   141430418.237        2391.832          39.063    26913302.063   105613636.920        1786.061          40.438  
E36  23516968.563   123582529.306         580.159          46.000    23516970.063    92285665.859         433.202          46.563  
C01  37109703.125   193239968.928          41.260          44.688  
C02  38347098.937   199683411.679          17.946          40.500  
C03  36932036.438   192314811.212          47.339          45.250  
C04  38126743.937   198535963.299          25.747          41.813  
C06  40172968.437   209191036.775       -1737.199          35.375  
C07  36075264.875   187853374.399         352.245          45.750  
C09  38955864.000   202853331.849       -1833.010          37.500  
C10  36698662.875   191099572.788         510.470          44.875  
C13  38869331.813   202402889.949        1474.638          41.250  
C16  40129531.437   208964858.820       -1694.473          33.250  
C19  25725788.125   133960941.843        2125.360          39.250  
C20  25816887.063   134435328.001         538.944          39.500  
C24  24777517.500   129023022.805        2306.455          32.750  
C26  22251817.812   115871048.014        -146.784          49.063  
C29  24309842.375   126587715.388       -2118.920          45.063  
C35  21820840.375   113626847.872        -443.741          48.750  
C38  37196595.688   193692466.911        1300.864          46.063  
C40  36283859.313   188939583.588         382.203          46.938  
C44  23950476.375   124716463.985        1602.816          45.250  
C45  23532109.812   122537811.047       -2850.386          45.500  
> 2023 02 16 09 21 51.0000000  0 36                     
G01  20271453.063   106527207.801       -1653.989          47.500    20271447.125    79549516.793       -1235.124          47.563  
G03  22362598.563   117516376.692        2508.159          43.188    22362601.063    87755689.376        1872.869          43.813  
G07  22769182.625   119652720.124       -3093.149          41.438                                                                  
G08  24138789.875   126850178.784       -2241.619          39.313    24138790.250    94725770.575       -1674.079          41.938  
G14  20899988.812   109830195.768        1904.842          45.875    20899985.688    82016046.427        1422.447          47.813  
G17  22254460.313   116948003.057        1290.456          44.375                                                                  
G19  24525333.000   128881501.873        2364.723          38.000                                                                  
G21  22594024.875   118732398.127       -2988.981          43.313                                                                  
G30  22091594.312   116092087.667       -1656.795          44.875    22091595.312    86692129.175       -1237.180          47.250  
E02  24609688.125   129324801.351        1899.649          45.313    24609688.500    96573723.027        1418.649          44.500  
E10  26494315.375   139228559.121       -2504.191          43.313    26494318.125   103969383.977       -1870.079          43.875  
E11  23987566.375   126055513.236       -1748.220          43.625    23987563.125    94132351.222       -1305.558          42.938  
E24  26859269.500   141146269.114       -2473.388          39.188    26859288.375   105401550.580       -1847.075          40.125  
E25  23505638.063   123522944.167        -454.923          46.000    23505640.000    92241178.823        -339.687          47.188  
E34  26912832.250   141428026.607        2391.552          39.125    26912846.812   105611850.994        1785.665          40.438  
E36  23516858.438   123581949.530         579.538          45.813    23516859.938    92285232.906         432.702          46.688  
C01  37109695.687   193239927.519          41.084          44.688  
C02  38347095.687   199683393.959          17.570          40.938  
C03  36932027.250   192314763.916          47.003          45.313  
C04  38126739.500   198535937.783          25.199          42.000  
C06  40173302.312   209192774.148       -1737.695          35.250  
C07  36075197.562   187853022.245         351.907          45.688  
C09  38956215.563   202855164.965       -1833.358          37.500  
C10  36698564.938   191099062.379         510.107          44.875  
C13  38869048.562   202401415.538        1474.155          41.188  
C16  40129856.625   208966553.415       -1694.914          33.250  
C19  25725380.500   133958816.693        2124.811          39.250  
C20  25816783.563   134434789.570         538.037          39.625  
C24  24777074.750   129020716.637        2305.906          32.625  
C26  22251846.000   115871195.276        -147.772          49.000  
C29  24310249.062   126589834.471       -2119.364          45.125  
C35  21820925.875   113627291.829        -444.253          48.625  
C38  37196346.313   193691166.230        1300.395          46.125  
C40  36283785.625   188939201.445         381.894          47.000  
C44  23950168.875   124714861.476        1602.183          45.250  
C45  23532657.187   122540661.765       -2851.066          45.500  
> 2023 02 16 09 21 52.0000000  0 36                     
G01  20271767.500   106528861.968       -1654.169          47.375    20271761.687    79550752.040       -1235.267          47.438  
G03  22362121.375   117513868.715        2508.048          43.188    22362124.000    87753816.515        1872.854          43.938  
G07  22769771.500   119655813.205       -3092.895          41.500                                                                  
G08  24139216.188   126852420.389       -2241.430          39.125    24139216.750    94727444.520       -1673.722          41.875  
G14  20899626.375   109828291.024        1904.786          45.688    20899622.937    82014624.036        1422.440          47.563  
G17  22254214.812   116946712.502        1290.708          44.250                                                                  
G19  24524882.812   128879136.974        2365.163          38.125                                                                  
G21  22594593.562   118735387.030       -2988.813          43.250                                                                  
G30  22091909.688   116093744.522       -1656.860          44.938    22091910.625    86693366.423       -1237.249          47.375  
E02  24609326.437   129322901.601        1900.014          45.313    24609326.875    96572304.399        1418.717          44.313  
E10  26494792.000   139231063.277       -2503.835          43.188    26494794.563   103971253.971       -1869.824          43.938  
E11  23987899.000   126057261.599       -1748.106          43.688    23987895.813    94133656.808       -1305.429          42.813  
E24  26859740.563   141148742.689       -2473.191          39.438    26859759.188   105403397.687       -1847.029          40.313  
E25  23505725.250   123523399.194        -454.704          46.000    23505726.625    92241518.623        -339.724          47.375  
E34  26912377.375   141425635.311        2391.324          39.313    26912391.875   105610065.276        1785.825          40.563  
E36  23516747.937   123581370.205         579.481          45.750    23516749.750    92284800.307         432.682          46.625  
C01  37109687.875   193239886.262          41.414          44.688  
C02  38347091.813   199683376.262          18.061          40.813  
C03  36932018.062   192314716.728          47.326          45.250  
C04  38126733.812   198535912.345          25.681          42.063  
C06  40173635.562   209194511.416       -1737.131          35.250  
C07  36075129.937   187852670.172         352.227          45.688  
C09  38956568.063   202856998.210       -1833.014          37.500  
C10  36698467.313   191098552.089         510.504          44.875  
C13  38868765.500   202399941.266        1474.363          41.250  
C16  40130182.813   208968248.092       -1694.236          33.125  
C19  25724972.313   133956691.791        2125.072          39.125  
C20  25816680.250   134434251.664         537.920          39.625  
C24  24776630.562   129018410.911        2306.055          32.625  
C26  22251874.625   115871343.160        -147.894          49.000  
C29  24310655.813   126591953.629       -2118.979          45.063  
C35  21821011.000   113627736.050        -444.064          48.625  
C38  37196096.375   193689865.764        1300.590          46.250  
C40  36283712.625   188938819.354         382.284          46.813  
C44  23949861.187   124713259.228        1602.320          45.313  
C45  23533205.062   122543512.839       -2850.930          45.500  
> 2023 02 16 09 21 53.0000000  0 36                     
G01  20272082.250   106530516.511       -1654.924          47.313    20272076.625    79551987.594       -1235.866          47.375  
G03  22361643.875   117511360.974        2507.472          43.063    22361646.562    87751943.883        1872.401          43.813  
G07  22770360.125   119658906.440       -3093.439          41.188                                                                  
G08  24139642.875   126854661.892       -2241.633          39.188    24139643.250    94729118.312       -1674.019          41.813  
G14  20899263.938   109826386.532        1904.175          45.750    20899260.500    82013201.878        1421.898          47.438  
G17  22253968.937   116945421.949        1290.391          44.313                                                                  
G19  24524432.563   128876771.993        2364.736          38.188                                                                  
G21  22595162.813   118738375.977       -2989.221          43.438                                                                  
G30  22092224.812   116095401.769       -1657.594          44.938    22092225.812    86694603.969       -1237.796          47.125  
E02  24608965.000   129321001.950        1899.505          45.375    24608965.375    96570885.851        1418.369          44.375  
E10  26495269.000   139233567.348       -2504.159          43.750    26495271.125   103973123.890       -1870.094          44.125  
E11  23988231.937   126059010.068       -1748.658          43.500    23988228.625    94134962.471       -1305.792          43.000  
E24  26860211.125   141151216.359       -2474.147          39.375    26860229.875   105405244.886       -1847.371          40.250  
E25  23505811.063   123523854.467        -455.571          45.813    23505813.187    92241858.604        -340.200          47.313  
E34  26911922.250   141423244.098        2390.888          38.875    26911936.875   105608279.643        1785.413          40.563  
E36  23516637.688   123580791.130         578.868          46.125    23516639.563    92284367.878         432.262          46.563  
C01  37109679.250   193239844.851          41.360          44.750  
C02  38347089.063   199683358.550          17.890          40.625  
C03  36932009.438   192314669.378          47.226          45.188  
C04  38126728.812   198535886.781          25.415          41.875  
C06  40173969.562   209196248.542       -1737.299          35.375  
C07  36075062.125   187852317.976         352.012          45.688  
C09  38956919.937   202858831.290       -1833.334          37.500  
C10  36698368.875   191098041.633         510.237          44.875  
C13  38868482.688   202398466.988        1474.113          41.250  
C16  40130507.500   208969942.541       -1694.583          33.063  
C19  25724563.937   133954566.953        2124.585          39.125  
C20  25816577.500   134433714.116         537.300          39.688  
C24  24776187.875   129016105.500        2305.098          32.625  
C26  22251902.875   115871491.496        -148.739          49.000  
C29  24311063.000   126594072.680       -2119.245          45.063  
C35  21821096.188   113628180.331        -444.470          48.688  
C38  37195846.437   193688565.325        1300.249          46.313  
C40  36283639.125   188938437.124         382.088          46.875  
C44  23949553.187   124711657.056        1601.960          45.250  
C45  23533752.500   122546364.064       -2851.462          45.500  
> 2023 02 16 09 21 54.0000000  0 36                     
G01  20272397.438   106532171.597       -1655.354          47.250    20272391.875    79553223.521       -1236.101          47.625  
G03  22361166.562   117508853.639        2507.114          43.000    22361169.375    87750071.521        1872.210          43.875  
G07  22770948.937   119661999.773       -3093.554          41.313                                                                  
G08  24140069.625   126856903.423       -2241.649          39.188    24140070.125    94730792.198       -1673.881          41.938  
G14  20898901.625   109824482.437        1903.866          45.563    20898898.437    82011779.979        1421.745          47.875  
G17  22253723.563   116944131.476        1290.388          44.438                                                                  
G19  24523982.562   128874407.036        2364.908          38.250                                                                  
G21  22595731.500   118741364.994       -2989.125          43.375                                                                  
G30  22092540.437   116097059.457       -1657.978          44.938    22092541.312    86695841.865       -1238.065          47.188  
E02  24608603.687   129319102.544        1899.211          45.375    24608603.937    96569467.441        1418.259          44.438  
E10  26495745.375   139236071.454       -2504.218          43.625    26495747.562   103974993.846       -1870.021          44.000  
E11  23988564.625   126060758.698       -1749.019          43.563    23988561.375    94136268.275       -1305.967          42.938  
E24  26860681.750   141153690.255       -2474.218          39.375    26860700.687   105407092.220       -1847.578          40.188  
E25  23505898.437   123524310.127        -455.799          46.063    23505899.813    92242198.860        -340.436          47.188  
E34  26911467.062   141420853.045        2391.073          39.188    26911481.688   105606494.155        1785.433          40.500  
E36  23516527.750   123580212.402         578.497          46.000    23516529.500    92283935.705         432.005          46.750  
C01  37109671.813   193239803.445          41.509          44.625  
C02  38347085.437   199683340.713          17.712          40.500  
C03  36932000.188   192314622.097          47.349          45.188  
C04  38126724.250   198535861.239          25.663          41.750  
C06  40174303.000   209197985.584       -1737.269          35.438  
C07  36074994.813   187851965.802         352.094          45.688  
C09  38957271.562   202860664.384       -1833.259          37.438  
C10  36698270.813   191097531.139         510.360          44.750  
C13  38868199.750   202396992.764        1474.045          41.250  
C16  40130833.375   208971636.863       -1694.395          33.063  
C19  25724156.187   133952442.274        2124.603          39.188  
C20  25816474.063   134433176.958         536.842          39.750  
C24  24775745.500   129013800.356        2304.778          32.563  
C26  22251931.375   115871640.366        -149.151          49.063  
C29  24311469.875   126596191.717       -2119.138          45.125  
C35  21821181.687   113628624.799        -444.635          48.813  
C38  37195597.062   193687265.016        1300.138          46.313  
C40  36283565.563   188938054.869         382.046          46.938  
C44  23949245.812   124710055.070        1601.832          45.125  
C45  23534300.250   122549215.534       -2851.602          45.375  
> 2023 02 16 09 21 55.0000000  0 36                     
G01  20272712.250   106533827.501       -1656.091          47.125    20272706.813    79554460.087       -1236.690          47.375  
G03  22360689.687   117506346.966        2506.580          43.063    22360692.688    87748199.691        1871.747          43.938  
G07  22771537.688   119665093.624       -3093.836          41.438                                                                  
G08  24140496.000   126859145.276       -2241.813          39.188    24140496.562    94732466.288       -1674.097          41.938  
G14  20898539.375   109822579.036        1903.335          45.563    20898536.000    82010358.614        1421.292          47.563  
G17  22253478.250   116942841.387        1290.103          44.563                                                                  
G19  24523532.312   128872042.418        2364.640          38.000                                                                  
G21  22596300.188   118744354.464       -2989.467          43.438                                                                  
G30  22092855.875   116098717.976       -1658.682          44.813    22092857.000    86697080.360       -1238.577          47.188  
E02  24608242.125   129317203.617        1898.738          45.313    24608242.500    96568049.437        1418.006          44.500  
E10  26496221.937   139238575.913       -2504.435          43.750    26496224.063   103976864.055       -1870.219          43.875  
E11  23988897.437   126062507.849       -1749.207          43.563    23988894.187    94137574.452       -1306.288          42.938  
E24  26861152.750   141156164.647       -2474.137          39.125    26861171.688   105408939.962       -1847.771          40.375  
E25  23505984.813   123524766.480        -456.351          46.125    23505986.625    92242539.649        -340.857          47.500  
E34  26911012.188   141418462.541        2390.315          39.250    26911027.000   105604709.060        1785.042          40.625  
E36  23516417.563   123579634.304         578.092          45.875    23516419.500    92283504.032         431.563          46.625  
C01  37109663.812   193239762.361          41.060          44.563  
C02  38347081.813   199683323.258          17.510          40.625  
C03  36931990.687   192314575.077          47.250          45.063  
C04  38126718.938   198535835.964          25.489          41.563  
C06  40174636.563   209199722.874       -1737.193          35.375  
C07  36074927.312   187851613.890         351.959          45.625  
C09  38957624.312   202862497.800       -1833.366          37.375  
C10  36698173.125   191097020.890         510.226          44.688  
C13  38867916.625   202395518.973        1473.814          41.250  
C16  40131159.063   208973331.464       -1694.420          33.063  
C19  25723747.813   133950318.007        2124.220          39.063  
C20  25816370.938   134432640.575         536.304          39.750  
C24  24775302.188   129011495.902        2304.484          32.500  
C26  22251960.437   115871790.098        -149.874          49.063  
C29  24311876.688   126598311.065       -2119.298          45.250  
C35  21821267.062   113629069.759        -444.987          48.875  
C38  37195347.125   193685965.135        1299.821          46.188  
C40  36283492.438   188937672.889         381.948          46.875  
C44  23948938.313   124708453.567        1601.458          45.250  
C45  23534848.063   122552067.594       -2852.141          45.375  
> 2023 02 16 09 21 56.0000000  0 36                     
G01  20273027.375   106535483.974       -1656.442          47.063    20273021.938    79555697.063       -1236.935          47.313  
G03  22360212.625   117503840.695        2506.329          43.125    22360215.688    87746328.129        1871.596          43.938  
G07  22772126.250   119668187.641       -3093.858          41.313                                                                  
G08  24140922.625   126861387.190       -2241.788          39.375    24140923.062    94734140.455       -1673.897          41.875  
G14  20898177.125   109820676.044        1903.049          45.625    20898173.750    82008937.554        1421.088          47.438  
G17  22253232.687   116941551.409        1290.181          44.688                                                                  
G19  24523082.437   128869677.887        2364.785          38.063                                                                  
G21  22596869.250   118747344.064       -2989.338          43.500                                                                  
G30  22093171.437   116100376.993       -1658.971          44.500    22093172.625    86698319.216       -1238.849          47.000  
E02  24607880.875   129315304.966        1898.956          45.563    24607881.187    96566631.608        1417.962          44.438  
E10  26496698.875   139241080.457       -2504.330          43.500    26496700.750   103978734.330       -1870.108          44.063  
E11  23989230.500   126064257.249       -1749.218          43.313    23989227.188    94138880.803       -1306.318          43.063  
E24  26861623.375   141158639.294       -2474.641          39.313    26861642.437   105410787.838       -1847.787          40.313  
E25  23506072.000   123525223.199        -456.554          46.125    23506073.688    92242880.713        -341.040          47.313  
E34  26910557.500   141416072.231        2390.545          39.375    26910572.312   105602924.104        1785.117          40.688  
E36  23516307.562   123579056.639         577.780          45.938    23516309.500    92283072.644         431.473          46.250  
C01  37109655.437   193239721.265          41.184          44.563  
C02  38347079.250   199683305.784          17.632          40.563  
C03  36931982.375   192314528.113          47.194          45.250  
C04  38126714.375   198535810.703          25.678          41.688  
C06  40174970.250   209201460.050       -1737.253          35.125  
C07  36074859.437   187851261.993         352.145          45.625  
C09  38957976.500   202864331.179       -1833.218          37.438  
C10  36698074.750   191096510.678         510.414          44.688  
C13  38867634.000   202394045.245        1473.867          41.188  
C16  40131483.687   208975025.943       -1694.415          32.875  
C19  25723339.688   133948193.914        2124.275          38.938  
C20  25816268.625   134432104.647         535.901          39.750  
C24  24774860.375   129009191.806        2304.371          32.438  
C26  22251989.000   115871940.395        -150.277          49.000  
C29  24312283.938   126600430.399       -2119.116          45.313  
C35  21821352.500   113629514.902        -445.015          48.875  
C38  37195097.375   193684665.444        1299.922          45.938  
C40  36283419.000   188937290.901         382.143          46.813  
C44  23948630.313   124706852.257        1601.496          45.125  
C45  23535395.438   122554919.912       -2852.161          45.375  
> 2023 02 16 09 21 57.0000000  0 36                     
G01  20273342.875   106537140.983       -1657.251          47.063    20273337.438    79556934.434       -1237.537          47.563  
G03  22359735.688   117501334.840        2505.708          43.188    22359738.687    87744456.880        1871.172          43.875  
G07  22772715.187   119671281.865       -3094.304          41.250                                                                  
G08  24141349.375   126863629.131       -2241.797          39.188    24141349.875    94735814.622       -1674.187          42.000  
G14  20897815.250   109818773.451        1902.452          45.813    20897811.875    82007516.784        1420.670          47.750  
G17  22252987.313   116940261.535        1289.834          44.750                                                                  
G19  24522632.938   128867313.430        2364.502          38.188                                                                  
G21  22597438.062   118750333.816       -2989.789          43.438                                                                  
G30  22093487.500   116102036.498       -1659.671          44.563    22093488.563    86699558.462       -1239.390          47.125  
E02  24607519.688   129313406.522        1898.456          45.625    24607519.875    96565213.916        1417.579          44.563  
E10  26497175.250   139243585.028       -2504.541          43.625    26497177.188   103980604.640       -1870.268          43.875  
E11  23989563.312   126066006.886       -1749.728          43.438    23989559.937    94140187.340       -1306.481          42.938  
E24  26862094.500   141161114.120       -2474.672          39.375    26862113.438   105412635.940       -1848.074          40.313  
E25  23506159.000   123525680.356        -457.345          45.938    23506160.625    92243222.077        -341.485          47.188  
E34  26910102.563   141413682.163        2389.967          39.375    26910117.438   105601139.361        1784.683          40.563  
E36  23516197.938   123578479.300         577.246          45.875    23516199.688    92282641.540         430.997          46.500  
C01  37109648.000   193239680.240          41.068          44.500  
C02  38347075.500   199683288.347          17.265          40.438  
C03  36931972.812   192314481.138          46.941          45.188  
C04  38126709.813   198535785.530          25.360          41.938  
C06  40175303.938   209203197.207       -1737.128          35.313  
C07  36074791.875   187850910.129         351.889          45.563  
C09  38958328.562   202866164.591       -1833.393          37.500  
C10  36697976.750   191096000.434         510.260          44.750  
C13  38867351.063   202392571.687        1473.500          41.313  
C16  40131809.375   208976720.447       -1694.600          32.938  
C19  25722932.187   133946070.030        2123.776          38.938  
C20  25816165.313   134431569.179         535.316          39.563  
C24  24774417.375   129006888.146        2303.535          32.375  
C26  22252017.813   115872091.235        -151.032          48.938  
C29  24312690.750   126602549.763       -2119.367          45.313  
C35  21821438.063   113629960.243        -445.390          48.875  
C38  37194848.188   193683365.903        1299.482          46.000  
C40  36283345.375   188936908.886         382.000          46.938  
C44  23948323.312   124705251.156        1600.988          45.313  
C45  23535943.187   122557772.529       -2852.780          45.313  
> 2023 02 16 09 21 58.0000000  0 36                     
G01  20273658.125   106538798.604       -1657.604          47.000    20273652.625    79558172.274       -1237.853          47.375  
G03  22359259.375   117498829.459        2505.498          43.250    22359262.125    87742586.003        1870.925          44.063  
G07  22773304.062   119674376.373       -3094.332          41.250                                                                  
G08  24141775.687   126865871.182       -2241.939          39.000    24141776.375    94737488.898       -1674.094          41.938  
G14  20897453.187   109816871.365        1902.154          45.875    20897449.812    82006096.392        1420.389          47.500  
G17  22252742.063   116938971.872        1289.845          44.813                                                                  
G19  24522182.687   128864949.113        2364.601          38.313                                                                  
G21  22598007.062   118753323.768       -2989.861          43.438                                                                  
G30  22093803.375   116103696.606       -1660.090          44.438    22093804.437    86700798.142       -1239.650          47.188  
E02  24607158.312   129311508.437        1898.296          45.500    24607158.562    96563796.525        1417.492          44.375  
E10  26497651.875   139246089.818       -2504.489          43.500    26497653.812   103982475.087       -1870.300          43.938  
E11  23989896.562   126067756.805       -1749.723          43.313    23989892.937    94141494.120       -1306.608          42.938  
E24  26862565.687   141163589.294       -2474.707          39.625    26862584.687   105414484.206       -1848.104          40.438  
E25  23506245.875   123526137.997        -457.582          45.875    23506247.812    92243563.813        -341.639          47.438  
E34  26909648.000   141411292.428        2389.725          39.125    26909662.688   105599354.803        1784.612          40.688  
E36  23516088.000   123577902.475         577.000          45.938    23516089.812    92282210.776         430.864          46.438  
C01  37109640.500   193239639.274          41.024          44.563  
C02  38347071.688   199683270.976          17.666          40.563  
C03  36931963.687   192314434.273          47.024          45.063  
C04  38126704.312   198535760.408          25.151          42.063  
C06  40175637.375   209204934.396       -1737.036          35.375  
C07  36074724.312   187850558.379         352.005          45.625  
C09  38958680.812   202867998.093       -1833.167          37.438  
C10  36697879.063   191095490.295         510.403          44.688  
C13  38867067.875   202391098.280        1473.551          41.250  
C16  40132135.062   208978414.959       -1694.284          33.000  
C19  25722524.312   133943946.385        2123.769          39.000  
C20  25816062.563   134431034.272         534.979          39.688  
C24  24773974.937   129004584.903        2303.372          32.375  
C26  22252047.250   115872242.767        -151.512          48.938  
C29  24313097.687   126604669.228       -2119.268          45.375  
C35  21821523.563   113630405.881        -445.465          48.813  
C38  37194598.500   193682066.588        1299.503          46.000  
C40  36283272.250   188936526.977         382.092          47.063  
C44  23948016.000   124703650.352        1600.960          45.313  
C45  23536491.125   122560625.540       -2852.902          45.375  
> 2023 02 16 09 21 59.0000000  0 36                     
G01  20273973.812   106540456.297       -1657.488          46.938    20273968.062    79559410.149       -1237.771          47.375  
G03  22358782.313   117496324.003        2505.752          43.250    22358785.312    87740715.050        1871.132          43.938  
G07  22773892.625   119677470.590       -3093.790          41.125                                                                  
G08  24142202.375   126868112.794       -2241.178          39.125    24142202.875    94739162.825       -1673.678          41.875  
G14  20897091.187   109814969.196        1902.483          45.813    20897087.875    82004675.944        1420.583          47.438  
G17  22252496.438   116937681.816        1290.428          44.688                                                                  
G19  24521732.688   128862584.392        2365.092          38.063                                                                  
G21  22598576.250   118756313.383       -2989.258          43.500                                                                  
G30  22094119.062   116105356.722       -1659.939          44.625    22094120.187    86702037.836       -1239.545          46.938  
E02  24606797.000   129309610.058        1898.755          45.313    24606797.500    96562378.908        1417.821          44.438  
E10  26498128.500   139248594.165       -2503.792          43.563    26498130.437   103984345.176       -1869.815          44.063  
E11  23990229.750   126069506.481       -1749.232          43.375    23990225.938    94142800.707       -1306.263          43.000  
E24  26863036.500   141166064.203       -2474.397          39.563    26863055.625   105416332.301       -1847.692          40.313  
E25  23506333.750   123526595.502        -457.156          46.188    23506334.875    92243905.477        -341.402          47.250  
E34  26909193.563   141408902.436        2390.610          39.188    26909208.000   105597570.076        1784.992          40.750  
E36  23515978.063   123577325.511         577.363          45.938    23515979.937    92281779.939         431.135          46.375  
C01  37109632.062   193239597.828          41.461          44.375  
C02  38347068.437   199683253.172          18.162          40.438  
C03  36931955.187   192314386.947          47.415          45.250  
C04  38126699.875   198535734.827          25.519          41.938  
C06  40175971.063   209206671.064       -1736.361          35.438  
C07  36074656.437   187850206.153         352.636          45.688  
C09  38959032.812   202869831.136       -1832.614          37.375  
C10  36697780.750   191094979.664         511.059          44.688  
C13  38866785.438   202389624.503        1474.061          41.250  
C16  40132460.250   208980108.867       -1693.754          32.938  
C19  25722116.375   133941822.424        2124.272          39.000  
C20  25815960.000   134430499.321         535.193          39.750  
C24  24773532.437   129002281.539        2303.704          32.313  
C26  22252076.187   115872394.364        -151.537          48.813  
C29  24313505.000   126606788.253       -2118.633          45.375  
C35  21821609.000   113630851.249        -444.978          48.688  
C38  37194348.688   193680766.940        1300.037          46.125  
C40  36283198.750   188936144.562         382.898          47.125  
C44  23947708.187   124702049.273        1601.355          45.313  
C45  23537038.688   122563478.304       -2852.469          45.313  
> 2023 02 16 09 22 00.0000000  0 36                     
G01  20274289.313   106542113.836       -1658.007          47.000    20274283.562    79560647.922       -1238.144          47.500  
G03  22358305.625   117493818.236        2505.270          43.188    22358308.375    87738843.875        1870.836          43.938  
G07  22774481.438   119680564.319       -3094.084          41.000                                                                  
G08  24142628.813   126870353.777       -2241.332          39.000    24142629.562    94740836.253       -1673.646          42.063  
G14  20896729.500   109813066.741        1902.010          45.813    20896726.187    82003255.279        1420.345          47.750  
G17  22252250.875   116936391.178        1290.370          44.500                                                                  
G19  24521282.937   128860218.992        2365.002          38.125                                                                  
G21  22599144.938   118759302.431       -2989.432          43.563                                                                  
G30  22094435.125   116107016.663       -1660.391          44.688    22094436.125    86703277.387       -1239.916          47.063  
E02  24606435.937   129307711.237        1898.347          45.063    24606436.500    96560960.962        1417.619          44.563  
E10  26498604.750   139251097.837       -2504.036          43.500    26498606.813   103986214.841       -1869.848          43.875  
E11  23990562.250   126071255.684       -1749.639          43.375    23990558.750    94144106.953       -1306.494          42.875  
E24  26863507.563   141168538.606       -2474.774          39.750    26863526.687   105418180.032       -1848.018          40.438  
E25  23506419.875   123527052.759        -457.729          46.063    23506421.875    92244246.920        -341.785          47.125  
E34  26908738.688   141406511.971        2389.910          39.250    26908753.000   105595785.013        1784.855          40.750  
E36  23515868.312   123576748.228         576.910          46.313    23515870.187    92281348.847         430.793          46.563  
C01  37109624.188   193239555.806          41.704          44.125  
C02  38347064.938   199683234.725          18.306          40.438  
C03  36931945.813   192314338.889          47.478          45.125  
C04  38126695.438   198535708.632          25.823          42.063  
C06  40176304.500   209208407.012       -1736.180          35.313  
C07  36074588.938   187849853.252         352.561          45.688  
C09  38959384.625   202871663.507       -1832.804          37.375  
C10  36697682.563   191094468.347         511.013          44.500  
C13  38866502.313   202388150.154        1473.995          41.188  
C16  40132785.500   208981802.049       -1693.538          32.938  
C19  25721708.562   133939697.948        2124.115          39.000  
C20  25815857.000   134429964.170         534.697          39.875  
C24  24773090.062   128999977.873        2303.191          32.125  
C26  22252105.250   115872545.840        -152.001          48.500  
C29  24313911.750   126608906.584       -2118.684          45.438  
C35  21821694.813   113631296.111        -445.249          48.750  
C38  37194099.375   193679466.784        1299.807          46.188  
C40  36283124.875   188935761.432         382.776          47.125  
C44  23947400.875   124700447.701        1601.228          45.438  
C45  23537586.687   122566330.693       -2852.770          45.313  
> 2023 02 16 09 22 01.0000000  0 36                     
G01  20274604.625   106543772.311       -1658.895          47.125    20274599.125    79561886.411       -1238.821          47.250  
G03  22357829.062   117491313.259        2504.558          43.250    22357831.812    87736973.310        1870.290          44.063  
G07  22775070.375   119683658.611       -3094.666          40.813                                                                  
G08  24143055.188   126872595.095       -2241.747          39.000    24143055.937    94742510.002       -1674.005          41.938  
G14  20896367.375   109811165.080        1901.236          45.688    20896364.250    82001835.207        1419.801          47.625  
G17  22252005.625   116935101.036        1289.905          44.250                                                                  
G19  24520832.813   128857854.052        2364.734          38.313                                                                  
G21  22599713.875   118762292.005       -2989.899          43.500                                                                  
G30  22094750.875   116108677.499       -1661.269          44.625    22094752.125    86704517.610       -1240.553          47.063  
E02  24606074.563   129305813.040        1897.927          45.563    24606075.250    96559543.485        1417.237          44.563  
E10  26499081.437   139253602.022       -2504.559          43.375    26499083.375   103988084.834       -1870.179          43.938  
E11  23990895.312   126073005.506       -1750.226          43.563    23990891.750    94145413.635       -1306.977          42.875  
E24  26863978.750   141171013.649       -2475.482          39.813    26863997.813   105420028.239       -1848.455          40.438  
E25  23506507.875   123527510.793        -458.387          45.938    23506509.125    92244588.952        -342.377          47.375  
E34  26908284.000   141404122.074        2389.692          39.313    26908298.250   105594000.399        1784.348          40.813  
E36  23515758.500   123576171.713         576.130          46.313    23515760.375    92280918.337         430.242          46.438  
C01  37109616.438   193239514.085          41.672          44.500  
C02  38347061.563   199683216.673          18.134          40.500  
C03  36931936.125   192314291.350          47.239          44.813  
C04  38126689.875   198535682.758          25.577          42.063  
C06  40176637.375   209210143.250       -1736.486          35.375  
C07  36074521.312   187849500.747         352.261          45.625  
C09  38959736.937   202873496.277       -1833.141          37.375  
C10  36697584.750   191093957.413         510.654          44.500  
C13  38866219.062   202386676.301        1473.547          41.313  
C16  40133111.625   208983495.602       -1693.818          32.938  
C19  25721300.562   133937573.997        2123.640          39.063  
C20  25815754.125   134429429.829         533.936          39.938  
C24  24772647.313   128997674.990        2302.526          32.125  
C26  22252134.812   115872698.262        -152.863          48.750  
C29  24314318.750   126611025.317       -2119.032          45.500  
C35  21821780.313   113631741.548        -445.826          48.563  
C38  37193849.625   193678167.168        1299.317          46.188  
C40  36283051.562   188935378.725         382.463          47.125  
C44  23947093.500   124698846.704        1600.694          45.438  
C45  23538134.375   122569183.750       -2853.385          45.125  
